price,price_max,boundingbox,osm_id,lon,place_id,names,lat,price_avg,pop,price_min
"""""",10000.0,"[52.3570365, 52.6770365, 13.2288599, 13.5488599]",240109189,13.3888599,595794,"[""Berlin, 10117, Deutschland"", ""Berlin "", ""Berlin""]",52.5170365,3796.7,3613495,500.0
"""""",9988.0,"[53.390341, 53.710341, 9.840654, 10.160654]",20833623,10.000654,114035,"[""Hamburg, 20095, Deutschland"", ""Hamburg "", ""Hamburg""]",53.550341,3975.0,1830584,551.0
"""""",10000.0,"[48.0616244, 48.2481162, 11.360777, 11.7229083]",62428,11.5753822,197724330,"[""M\u00fcnchen, Obb, Bayern, Deutschland"", ""M\u00fcnchen"", ""M\u00fcnchen ""]",48.1371079,7066.6,1456039,500.0
"""""",9677.4,"[50.8304494, 51.0849743, 6.7725303, 7.162028]",62578,6.959974,197458053,"[""K\u00f6ln, Regierungsbezirk K\u00f6ln, Nordrhein-Westfalen, Deutschland"", ""K\u00f6ln "", ""K\u00f6ln""]",50.938361,3469.0,1080394,517.2
"""""",9956.9,"[49.9506444, 50.2706444, 8.5220917, 8.8420917]",27418664,8.6820917,142284,"[""Frankfurt, Regierungsbezirk Darmstadt, Hessen, 60311, Deutschland"", ""Frankfurt "", ""Frankfurt am Main""]",50.1106444,4255.8,746878,530.1
"""""",9916.3,"[48.6184485, 48.9384485, 9.0200132, 9.3400132]",1674026139,9.1800132,17476218,"[""Stuttgart, Regierungsbezirk Stuttgart, Baden-W\u00fcrttemberg, 70173, Deutschland"", ""Stuttgart"", ""Stuttgart ""]",48.7784485,4411.8,632743,882.4
"""""",10000.0,"[51.0654018, 51.3854018, 6.6163137, 6.9363137]",240126753,6.7763137,605203,"[""D\u00fcsseldorf, Regierungsbezirk D\u00fcsseldorf, Nordrhein-Westfalen, 40213, Deutschland"", ""D\u00fcsseldorf "", ""D\u00fcsseldorf""]",51.2254018,4071.4,617280,981.3
"""""",5402.0,"[51.3542273, 51.6742273, 7.3052789, 7.6252789]",25293125,7.4652789,121619,"[""Dortmund, Regierungsbezirk Arnsberg, Nordrhein-Westfalen, 44135, Deutschland"", ""Dortmund"", ""Dortmund ""]",51.5142273,2135.1,586600,590.4
"""""",6872.4,"[51.3475714, 51.5342019, 6.8943442, 7.13765]",62713,7.011429,197694959,"[""Essen, Regierungsbezirk D\u00fcsseldorf, Nordrhein-Westfalen, Deutschland"", ""Essen"", ""Essen ""]",51.457087,2290.8,583393,558.1
"""""",7609.8,"[51.1806321, 51.5006321, 12.2147329, 12.5347329]",21687149,12.3747329,240143048,"[""Leipzig, Sachsen, 04109, Deutschland"", ""Leipzig"", ""Leipzig ""]",51.3406321,2536.6,581980,500.0
"""""",6342.9,"[53.0110367, 53.5984187, 8.4815929, 8.9907318]",62559,8.8071646,197692829,"[""Bremen, Deutschland"", ""Bremen "", ""Bremen""]",53.0758196,2114.3,568006,548.8
"""""",7586.2,"[50.8893286, 51.2093286, 13.5781437, 13.8981437]",20833613,13.7381437,240143667,"[""Dresden, Sachsen, 01069, Deutschland"", ""Dresden"", ""Dresden ""]",51.0493286,2692.3,551072,566.7
"""""",8529.4,"[52.3051373, 52.4543349, 9.60443, 9.9184259]",59418,9.7385532,197719425,"[""Hannover, Region Hannover, Niedersachsen, Deutschland"", ""Hannover "", ""Hannover""]",52.3744779,2929.4,535061,875.0
"""""",9782.6,"[49.3314339, 49.5407534, 10.9887326, 11.2825957]",62780,11.077298,197438213,"[""N\u00fcrnberg, Mittelfranken, Bayern, Deutschland"", ""N\u00fcrnberg "", ""N\u00fcrnberg""]",49.453872,3590.0,515201,742.9
"""""",5426.1,"[51.274999, 51.594999, 6.599562, 6.919562]",240055326,6.759562,587207,"[""Duisburg, Regierungsbezirk D\u00fcsseldorf, Nordrhein-Westfalen, 47051, Deutschland"", ""Duisburg"", ""Duisburg ""]",51.434999,1808.7,498110,516.7
"""""",4020.3,"[51.4105043, 51.5313751, 7.1021062, 7.3493347]",62644,7.2196635,198028801,"[""Bochum, Regierungsbezirk Arnsberg, Nordrhein-Westfalen, Deutschland"", ""Bochum"", ""Bochum ""]",51.4818111,2251.6,365529,526.3
"""""",5548.5,"[51.104018, 51.424018, 7.0180374, 7.3380374]",240090728,7.1780374,596062,"[""Wuppertal, Regierungsbezirk D\u00fcsseldorf, Nordrhein-Westfalen, 42285, Deutschland"", ""Wuppertal "", ""Wuppertal""]",51.264018,1849.5,353590,511.0
"""""",5625.0,"[51.9148722, 52.1147629, 8.3778167, 8.6633481]",62646,8.540868,198049964,"[""Bielefeld, Regierungsbezirk Detmold, Nordrhein-Westfalen, Deutschland"", ""Bielefeld "", ""Bielefeld""]",52.010877,2139.4,332552,543.5
"""""",7362.9,"[50.575851, 50.895851, 6.94066, 7.26066]",26373169,7.10066,129972,"[""Bonn, Regierungsbezirk K\u00f6ln, Nordrhein-Westfalen, 53111, Deutschland"", ""Bonn "", ""Bonn""]",50.735851,2833.3,325490,862.1
"""""",9545.4,"[51.8401448, 52.0600251, 7.4737853, 7.7743634]",62591,7.61330165026119,198287788,"[""M\u00fcnster, Regierungsbezirk M\u00fcnster, Nordrhein-Westfalen, Deutschland"", ""Munster"", ""M\u00fcnster "", ""M\u00fcnster""]",51.9501317,3214.3,14983,600.0
"""""",8900.5,"[48.9404699, 49.0912838, 8.2773142, 8.5417299]",62518,8.4034195,198027610,"[""Karlsruhe, Regierungsbezirk Karlsruhe, Baden-W\u00fcrttemberg, Deutschland"", ""Karlsruhe "", ""Karlsruhe""]",49.0068705,3571.3,311919,1412.5
"""""",7382.4,"[49.329591, 49.649591, 8.307236, 8.627236]",240060919,8.467236,580787,"[""Mannheim, Regierungsbezirk Karlsruhe, Baden-W\u00fcrttemberg, 68161, Deutschland"", ""Mannheim"", ""Mannheim ""]",49.489591,2705.9,307997,589.5
"""""",8400.0,"[48.2581444, 48.4586541, 10.7633615, 10.9593328]",62407,10.8986971,198028629,"[""Augsburg, Schwaben, Bayern, Deutschland"", ""Augsburg"", ""Augsburg ""]",48.3668041,3992.0,292851,741.9
"""""",9880.0,"[49.9220384, 50.2420384, 8.0816556, 8.4016556]",240028377,8.2416556,574888,"[""Wiesbaden, Regierungsbezirk Darmstadt, Hessen, 65183, Deutschland"", ""Wiesbaden"", ""Wiesbaden ""]",50.0820384,3835.4,278654,937.5
"""""",5640.0,"[51.0346983, 51.3546983, 6.2753641, 6.5953641]",240062631,6.4353641,585387,"[""M\u00f6nchengladbach, Regierungsbezirk D\u00fcsseldorf, Nordrhein-Westfalen, 41061, Deutschland"", ""M\u00f6nchengladbach "", ""M\u00f6nchengladbach""]",51.1946983,1880.0,262188,518.5
"""""",3976.6,"[51.4808012, 51.6315932, 6.9874995, 7.152327]",62522,7.0960124,197456683,"[""Gelsenkirchen, Regierungsbezirk M\u00fcnster, Nordrhein-Westfalen, Deutschland"", ""Gelsenkirchen"", ""Gelsenkirchen ""]",51.5110321,1476.4,260305,502.2
"""""",4602.6,"[52.1867942, 52.3573831, 10.4124522, 10.6449081]",62531,10.5236066,197692674,"[""Braunschweig, Niedersachsen, Deutschland"", ""Braunschweig"", ""Braunschweig ""]",52.2646577,2534.5,248023,800.0
"""""",7236.6,"[54.1627085, 54.4827085, 9.975555, 10.295555]",24487450,10.135555,119344,"[""Kiel, Schleswig-Holstein, 24103, Deutschland"", ""Kiel "", ""Kiel""]",54.3227085,2412.2,247943,533.3
"""""",4974.0,"[50.6722608, 50.9922608, 12.7652977, 13.0852977]",20830918,12.9252977,120397,"[""Chemnitz, Sachsen, 09111, Deutschland"", ""Chemnitz "", ""Chemnitz""]",50.8322608,1658.0,246855,505.4
"""""",5132.7,"[50.6621399, 50.8572449, 5.9748624, 6.2180747]",62564,6.083862,197457664,"[""Aachen, St\u00e4dteregion Aachen, Regierungsbezirk K\u00f6ln, Nordrhein-Westfalen, Deutschland"", ""Aachen "", ""Aachen""]",50.776351,2510.6,246272,834.5
"""""","""""","[51.3225041, 51.6425041, 11.8105452, 12.1305452]",1667005776,11.9705452,17465807,"[""Halle (Saale), Sachsen-Anhalt, 06108, Deutschland"", ""Halle (Saale)""]",51.4825041,"""""",239173,""""""
"""""",5389.0,"[51.9715889, 52.2915889, 11.4799609, 11.7999609]",33997995,11.6399609,201537,"[""Magdeburg, Sachsen-Anhalt, 39104, Deutschland"", ""Magdeburg"", ""Magdeburg ""]",52.1315889,2050.0,238478,505.6
"""""","""""","[47.3621641, 48.6421641, 7.1838644, 8.4638644]",21973469,7.8238644,118860,"[""Freiburg im Breisgau, Regierungsbezirk Freiburg, Baden-W\u00fcrttemberg, 79144, Deutschland"", ""Freiburg im Breisgau""]",48.0021641,"""""",229636,""""""
"""""",6788.4,"[51.1731205, 51.4931205, 6.4023343, 6.7223343]",240048753,6.5623343,577991,"[""Krefeld, Regierungsbezirk D\u00fcsseldorf, Nordrhein-Westfalen, 47798, Deutschland"", ""Krefeld "", ""Krefeld""]",51.3331205,2262.8,226699,541.7
"""""",6841.8,"[53.706444, 54.026444, 10.524738, 10.844738]",25327151,10.684738,120877,"[""L\u00fcbeck, Schleswig-Holstein, 23552, Deutschland"", ""L\u00fcbeck "", ""L\u00fcbeck""]",53.866444,2280.6,216318,841.8
"""""",9388.9,"[49.8412314, 50.1612314, 8.1162513, 8.4362513]",240116263,8.2762513,592158,"[""Mainz, Rheinland-Pfalz, 55116, Deutschland"", ""Mainz"", ""Mainz ""]",50.0012314,3497.5,215110,871.0
"""""",4857.7,"[50.8177974, 51.1377974, 10.8687364, 11.1887364]",240038130,11.0287364,584672,"[""Erfurt, Th\u00fcringen, 99084, Deutschland, Europe"", ""Erfurt "", ""Erfurt""]",50.9777974,2377.8,212988,506.7
"""""",3831.8,"[51.4486973, 51.5799378, 6.7772836, 6.9304578]",62734,6.84932276128192,198110355,"[""Oberhausen, Regierungsbezirk D\u00fcsseldorf, Nordrhein-Westfalen, Deutschland"", ""Oberhausen"", ""Oberhausen ""]",51.51399325,1845.0,211422,566.5
"""""",6566.7,"[53.9324445, 54.2524445, 11.9686127, 12.2886127]",1684321651,12.1286127,17538915,"[""Rostock, Mecklenburg-Vorpommern, 18057, Deutschland"", ""Rostock"", ""Rostock ""]",54.0924445,2818.4,208409,864.4
"""""",6156.2,"[51.2604367, 51.3690107, 9.3500845, 9.5697643]",62598,9.4624705,197435167,"[""Kassel, Regierungsbezirk Kassel, Hessen, Deutschland, Europe"", ""Kassel"", ""Kassel ""]",51.3076867,2268.7,200736,508.9
"""""",4587.2,"[51.1982945, 51.5182945, 7.313296, 7.633296]",240110547,7.473296,596250,"[""Hagen, Regierungsbezirk Arnsberg, Nordrhein-Westfalen, 58095, Deutschland"", ""Hagen "", ""Hagen""]",51.3582945,1733.0,187730,500.0
"""""",4779.9,"[49.1721922, 49.3220676, 6.8276387, 7.1380203]",1187159,6.996379,198361653,"[""Saarbr\u00fccken, Regionalverband Saarbr\u00fccken, Saarland, Deutschland"", ""Saarbr\u00fccken"", ""Saarbr\u00fccken ""]",49.234362,1593.3,180966,504.4
"""""",3374.4,"[51.5786497, 51.7445915, 7.6747699, 7.9974351]",62499,7.82168312484634,198732025,"[""Hamm, Regierungsbezirk Arnsberg, Nordrhein-Westfalen, Deutschland"", ""Hamm "", ""Hamm""]",51.6616271,1897.1,179185,542.7
"""""",9438.8,"[52.2409309, 52.5609309, 12.8991397, 13.2191397]",1695218178,13.0591397,17825094,"[""Potsdam, Brandenburg, 14467, Deutschland"", ""Potsdam"", ""Potsdam ""]",52.4009309,4032.3,175710,700.0
"""""",7900.8,"[51.3507415, 51.47145, 6.8066678, 6.9595443]",62385,6.8829192,198020287,"[""M\u00fclheim, Regierungsbezirk D\u00fcsseldorf, Nordrhein-Westfalen, Deutschland"", ""M\u00fclheim an der Ruhr"", ""M\u00fclheim ""]",51.4272925,2633.6,171265,568.5
"""""","""""","[49.4266985, 49.5480579, 8.2982215, 8.4769401]",62347,8.39006577268274,197695253,"[""Ludwigshafen am Rhein, Rheinland-Pfalz, Deutschland"", ""Ludwigshafen am Rhein""]",49.487297,"""""",168497,""""""
"""""",7095.2,"[52.9789753, 53.2989753, 8.0546017, 8.3746017]",277023297,8.2146017,834049,"[""Oldenburg, Niedersachsen, 26122, Deutschland"", ""Oldenburg "", ""Oldenburg (Oldenburg)""]",53.1389753,2575.8,167081,812.0
"""""",6338.1,"[52.106837, 52.426837, 7.889741, 8.209741]",240056905,8.049741,583836,"[""Osnabr\u00fcck, Niedersachsen, 49074, Deutschland"", ""Osnabr\u00fcck"", ""Osnabr\u00fcck ""]",52.266837,2112.7,164374,873.5
"""""",7617.6,"[50.8724743, 51.1924743, 6.8281194, 7.1481194]",1651889631,6.9881194,17346888,"[""Leverkusen, Regierungsbezirk K\u00f6ln, Nordrhein-Westfalen, 51373, Deutschland"", ""Leverkusen"", ""Leverkusen ""]",51.0324743,2666.7,163577,923.1
"""""",9729.7,"[49.2493582, 49.5693582, 8.534724, 8.854724]",240058050,8.694724,584046,"[""Heidelberg, Regierungsbezirk Karlsruhe, Baden-W\u00fcrttemberg, 69120, Deutschland"", ""Heidelberg "", ""Heidelberg""]",49.4093582,3407.1,160601,841.8
"""""",6133.3,"[51.0112468, 51.3312468, 6.9238996, 7.2438996]",240072888,7.0838996,580204,"[""Solingen, Regierungsbezirk D\u00fcsseldorf, Nordrhein-Westfalen, 42651, Deutschland"", ""Solingen "", ""Solingen""]",51.1712468,2179.8,158803,714.8
"""""","""""","[49.712775, 50.032775, 8.491177, 8.811177]",240074718,8.651177,592779,"[""Darmstadt, Regierungsbezirk Darmstadt, Hessen, 64283, Deutschland"", ""Darmstadt""]",49.872775,"""""",158254,""""""
"""""",4905.7,"[51.3780394, 51.6980394, 7.059985, 7.379985]",21315295,7.219985,114135,"[""Herne, Regierungsbezirk Arnsberg, Nordrhein-Westfalen, 44623, Deutschland"", ""Herne"", ""Herne ""]",51.5380394,1797.8,156490,509.4
"""""",9989.7,"[51.1167565, 51.2356105, 6.6148193, 6.798347]",163307,6.6916476,198350301,"[""Neuss, Rhein-Kreis Neuss, Regierungsbezirk D\u00fcsseldorf, Nordrhein-Westfalen, Deutschland"", ""Neuss"", ""Neuss ""]",51.1981778,3329.9,153810,869.6
"""""",8588.2,"[48.8595333, 49.1795333, 11.9374869, 12.2574869]",240120926,12.0974869,603495,"[""Rgbg, Regensburg, OPf, Bayern, 93047, Deutschland"", ""Regensburg "", ""Regensburg""]",49.0195333,3680.5,150894,1151.1
"""""",5216.8,"[51.6793659, 51.7587989, 8.7104923, 8.8354886]",5610766,8.76486977817756,199025344,"[""Paderborn, Kreis Paderborn, Regierungsbezirk Detmold, Nordrhein-Westfalen, Deutschland"", ""Paderborn "", ""Paderborn""]",51.71895955,2290.2,149075,765.5
"""""",8888.9,"[48.6030165, 48.9230165, 11.2650395, 11.5850395]",2110382406,11.4250395,21577311,"[""Ingolstadt, Obb, Bayern, 85057, Deutschland"", ""Ingolstadt"", ""Ingolstadt ""]",48.7630165,4063.1,135244,941.2
"""""",6584.4,"[49.9455002, 50.2655002, 8.6010698, 8.9210698]",240072040,8.7610698,597947,"[""Offenbach am Main, Regierungsbezirk Darmstadt, Hessen, 63065, Deutschland"", ""Offenbach am Main"", ""Offenbach ""]",50.1055002,3325.0,126658,996.0
"""""",8844.6,"[49.63245, 49.95245, 9.772966, 10.092966]",25738881,9.932966,127502,"[""W\u00fcrzburg, Unterfranken, Bayern, 97070, Deutschland"", ""W\u00fcrzburg "", ""W\u00fcrzburg""]",49.79245,2948.2,126635,851.2
"""""",8010.8,"[49.317263, 49.637263, 10.829616, 11.149616]",1602111978,10.989616,17208290,"[""F\u00fcrth, Mittelfranken, Bayern, 90762, Deutschland"", ""F\u00fcrth "", ""F\u00fcrth""]",49.477263,3749.2,126526,665.8
"""""","""""","[48.3066627, 48.4685153, 9.8420502, 10.0428303]",62495,9.9932755,198678443,"[""Ulm, Regierungsbezirk T\u00fcbingen, Baden-W\u00fcrttemberg, Deutschland"", ""Ulm""]",48.3973944,"""""",125596,""""""
"""""",8280.2,"[48.982291, 49.302291, 9.058655, 9.378655]",26769661,9.218655,139300,"[""Heilbronn, Regierungsbezirk Stuttgart, Baden-W\u00fcrttemberg, 74072, Deutschland"", ""Heilbronn "", ""Heilbronn""]",49.142291,2916.5,125113,1178.9
"""""",6926.0,"[48.7308846, 49.0508846, 8.5429532, 8.8629532]",240046032,8.7029532,586618,"[""Pforzheim, Regierungsbezirk Karlsruhe, Baden-W\u00fcrttemberg, 75175, Deutschland"", ""Pforzheim "", ""Pforzheim""]",48.8908846,2533.3,124289,800.0
"""""",5514.7,"[52.2605588, 52.5805588, 10.6261682, 10.9461682]",31172722,10.7861682,164237,"[""Wolfsburg, Niedersachsen, 38440, Deutschland"", ""Wolfsburg "", ""Wolfsburg""]",52.4205588,2646.0,123914,906.2
"""""","""""","[51.4830052, 51.5908839, 9.8001329, 10.0536032]",191361,9.9352051,198140226,"[""G\u00f6ttingen, Landkreis G\u00f6ttingen, Niedersachsen, Deutschland, Europe"", ""G\u00f6ttingen""]",51.5327604,"""""",119529,""""""
"""""",5387.6,"[51.361581, 51.681581, 6.769204, 7.089204]",240026265,6.929204,571017,"[""Bottrop, Regierungsbezirk M\u00fcnster, Nordrhein-Westfalen, 46236, Deutschland"", ""Bottrop "", ""Bottrop""]",51.521581,1966.5,117364,721.4
"""""",7619.0,"[48.4126792, 48.5786138, 9.1148655, 9.2555868]",2772661,9.2114144,199192216,"[""Reutlingen, Landkreis Reutlingen, Regierungsbezirk T\u00fcbingen, Baden-W\u00fcrttemberg, Deutschland"", ""Reutlingen "", ""Reutlingen""]",48.4919508,3056.8,115762,785.7
"""""",5970.0,"[50.1933278, 50.5133278, 7.4343951, 7.7543951]",240102654,7.5943951,593176,"[""Koblenz, Rheinland-Pfalz, 56068, Deutschland"", ""Koblenz "", ""Koblenz""]",50.3533278,2335.0,113844,529.3
"""""",3973.7,"[51.5527602, 51.6514493, 7.1347922, 7.2962721]",56665,7.1978546,197686303,"[""Recklinghausen, Kreis Recklinghausen, Regierungsbezirk M\u00fcnster, Nordrhein-Westfalen, Deutschland"", ""Recklinghausen "", ""Recklinghausen""]",51.6143815,1734.7,113360,546.3
"""""",3957.3,"[53.4711654, 53.6101863, 8.48301, 8.6593672]",62658,8.5865509,198028882,"[""Bremerhaven, Bremen, Deutschland"", ""Bremerhaven"", ""Bremerhaven ""]",53.5522264,1319.1,113026,500.0
"""""",8166.7,"[50.9199924, 51.0269392, 7.0617856, 7.2545737]",173103,7.1277379,197832447,"[""Bergisch Gladbach, Rheinisch-Bergischer Kreis, Regierungsbezirk K\u00f6ln, Nordrhein-Westfalen, Deutschland"", ""Bergisch Gladbach"", ""Bergisch Gladbach ""]",50.9929303,2986.8,111627,557.7
"""""",6413.0,"[50.7681717, 51.0881717, 11.4279359, 11.7479359]",240090160,11.5879359,596371,"[""Jena, Th\u00fcringen, 07743, Deutschland"", ""Jena "", ""Jena""]",50.9281717,2361.7,111099,540.0
"""""",9375.0,"[49.4381187, 49.7581187, 10.843645, 11.163645]",17193023,11.003645,110269,"[""Erlangen, Mittelfranken, Bayern, 91052, Deutschland"", ""Erlangen "", ""Erlangen""]",49.5981187,3273.8,110998,923.1
"""""",5492.4,"[51.0198706, 51.3398706, 7.0343544, 7.3543544]",240063145,7.1943544,581309,"[""Remscheid, Regierungsbezirk D\u00fcsseldorf, Nordrhein-Westfalen, 42853, Deutschland"", ""Remscheid"", ""Remscheid ""]",51.1798706,1830.8,110584,500.0
"""""",6000.0,"[49.5996208, 49.9196208, 6.4841878, 6.8041878]",31941291,6.6441878,194268,"[""Trier, Rheinland-Pfalz, 54290, Deutschland"", ""Trier "", ""Trier""]",49.7596208,2044.4,110013,507.4
"""""",3223.3,"[51.9903721, 52.3103721, 10.1993147, 10.5193147]",129992313,10.3593147,327355,"[""Salzgitter, Niedersachsen, 38226, Deutschland"", ""Salzgitter"", ""Salzgitter ""]",52.1503721,1500.0,104548,513.9
"""""",6096.5,"[51.3907947, 51.5237804, 6.5583684, 6.6787416]",58623,6.62843,197689799,"[""Moers, Kreis Wesel, Regierungsbezirk D\u00fcsseldorf, Nordrhein-Westfalen, Deutschland"", ""Moers "", ""Moers""]",51.451283,2223.3,103949,532.3
"""""",4405.5,"[50.8114072, 50.9513102, 7.9215923, 8.1279162]",163256,8.0227233,197880988,"[""Siegen, Kreis Siegen-Wittgenstein, Regierungsbezirk Arnsberg, Nordrhein-Westfalen, Deutschland"", ""Siegen "", ""Siegen""]",50.8749804,1468.5,102337,602.2
"""""",4545.4,"[52.0935785, 52.1938772, 9.8465506, 10.0428454]",1176503,9.9513046,198868979,"[""Hildesheim, Landkreis Hildesheim, Niedersachsen, Deutschland, Europe"", ""Hildesheim"", ""Hildesheim ""]",52.1521636,1782.8,101744,800.0
"""""","""""","[51.5967447, 51.9167447, 14.1757307, 14.4957307]",1628927045,14.3357307,17405352,"[""Cottbus - Ch\u00f3\u015bebuz, Brandenburg, 03046, Deutschland"", ""Cottbus""]",51.7567447,"""""",101036,""""""
"""""",4602.0,"[49.2832174, 49.6032174, 7.6089951, 7.9289951]",240093234,7.7689951,596602,"[""Kaiserslautern, Rheinland-Pfalz, 67655, Deutschland"", ""Kaiserslautern"", ""Kaiserslautern ""]",49.4432174,1534.0,99684,525.0
"""""",4316.6,"[51.855934, 51.9770906, 8.2839977, 8.5059937]",138119,8.3782078,198094159,"[""G\u00fctersloh, Kreis G\u00fctersloh, Regierungsbezirk Detmold, Nordrhein-Westfalen, Deutschland"", ""G\u00fctersloh"", ""G\u00fctersloh ""]",51.9063997,2383.9,99315,735.3
"""""","""""","[51.3700726, 51.4843402, 7.2460717, 7.423475]",162826,7.335124,197658877,"[""Witten, Ennepe-Ruhr-Kreis, Regierungsbezirk Arnsberg, Nordrhein-Westfalen, Deutschland"", ""Witten""]",51.4370171,"""""",96565,""""""
"""""",6146.2,"[50.0753198, 50.1955019, 8.8619841, 9.0302592]",535895,8.9168179,198890388,"[""Hanau, Main-Kinzig-Kreis, Regierungsbezirk Darmstadt, Hessen, Deutschland"", ""Hanau"", ""Hanau ""]",50.1335542,2493.9,96130,711.4
"""""",4739.1,"[53.5443597, 53.6873387, 11.2960272, 11.505544]",62685,11.4148038,197694700,"[""Schwerin, Mecklenburg-Vorpommern, Deutschland"", ""Schwerin "", ""Schwerin""]",53.6288297,1925.4,95797,552.4
"""""",3391.3,"[50.7986158, 50.9765857, 11.9981564, 12.1695244]",62671,12.0796208,197694625,"[""Gera, Th\u00fcringen, Deutschland"", ""Gera "", ""Gera""]",50.8772301,1251.1,94859,521.7
"""""","""""","[48.8734228, 48.932556, 9.1373656, 9.3124752]",405292,9.1895147,197919522,"[""Ludwigsburg, Landkreis Ludwigsburg, Regierungsbezirk Stuttgart, Baden-W\u00fcrttemberg, Deutschland"", ""Ludwigsburg""]",48.8956194,"""""",93593,""""""
"""""",9834.7,"[48.7065634, 48.7757682, 9.2562418, 9.4165802]",2792882,9.3071685,198729583,"[""Esslingen, Landkreis Esslingen, Regierungsbezirk Stuttgart, Baden-W\u00fcrttemberg, Deutschland"", ""Esslingen "", ""Esslingen am Neckar""]",48.7427584,3767.1,93004,1502.3
"""""",4544.4,"[51.3017592, 51.4736517, 7.5841175, 7.7449936]",1800165,7.6999713,199052531,"[""Iserlohn, M\u00e4rkischer Kreis, Regierungsbezirk Arnsberg, Nordrhein-Westfalen, Deutschland"", ""Iserlohn"", ""Iserlohn ""]",51.3746778,1514.8,92928,536.2
"""""",5128.2,"[50.7409797, 50.8576045, 6.3856331, 6.5384131]",163046,6.4820806,197880788,"[""D\u00fcren, Kreis D\u00fcren, Regierungsbezirk K\u00f6ln, Nordrhein-Westfalen, Deutschland"", ""D\u00fcren "", ""D\u00fcren""]",50.8031684,1744.8,90502,508.5
"""""","""""","[50.6417164, 50.8127986, 12.4083479, 12.5659556]",397076,12.4939267,198277474,"[""Zwickau, Sachsen, Deutschland"", ""Zwickau""]",50.7185043,"""""",90192,""""""
"""""","""""","[48.4505844, 48.5937129, 8.9645155, 9.1310745]",2778914,9.0535531,198421098,"[""T\u00fcbingen, Landkreis T\u00fcbingen, Regierungsbezirk T\u00fcbingen, Baden-W\u00fcrttemberg, Deutschland"", ""T\u00fcbingen""]",48.5236164,"""""",89447,""""""
"""""",6060.6,"[54.7433021, 54.8233021, 9.3933264, 9.4733264]",240033839,9.4333264,573749,"[""Flensburg, Schleswig-Holstein, 24937, Deutschland"", ""Flensburg "", ""Flensburg""]",54.7833021,2140.3,88519,689.7
"""""","""""","[50.5264042, 50.6352285, 8.5557586, 8.7640475]",418617,8.6742306,198853412,"[""Gie\u00dfen, Landkreis Gie\u00dfen, Regierungsbezirk Gie\u00dfen, Hessen, Deutschland"", ""Gie\u00dfen""]",50.5862066,"""""",87343,""""""
"""""",8333.3,"[51.2646033, 51.3717943, 6.8012365, 6.9830942]",56682,6.8493503,198043516,"[""Ratingen, Kreis Mettmann, Regierungsbezirk D\u00fcsseldorf, Nordrhein-Westfalen, Deutschland"", ""Ratingen "", ""Ratingen""]",51.2973261,3240.0,87226,1650.1
"""""","""""","[51.5784957, 51.6526727, 7.4181329, 7.5923255]",158454,7.5228088,197876948,"[""L\u00fcnen, Kreis Unna, Regierungsbezirk Arnsberg, Nordrhein-Westfalen, Deutschland"", ""L\u00fcnen""]",51.6142482,"""""",86465,""""""
"""""",6198.8,"[47.9809195, 48.1253665, 8.3081027, 8.6365388]",1242298,8.494588,198416858,"[""Villingen-Schwenningen, Verwaltungsgemeinschaft Villingen-Schwenningen, Schwarzwald-Baar-Kreis, Regierungsbezirk Freiburg, Baden-W\u00fcrttemberg, Deutschland"", ""Villingen-Schwenningen"", ""Villingen-Schwenningen ""]",48.0632739,2094.0,84557,795.1
"""""","""""","[47.6539842, 47.7627374, 9.0853854, 9.2179906]",2784842,9.1750718,198436997,"[""Konstanz, Verwaltungsgemeinschaft Konstanz, Konstanz, Regierungsbezirk Freiburg, Baden-W\u00fcrttemberg, Deutschland"", ""Konstanz""]",47.659216,"""""",84441,""""""
"""""",3945.0,"[51.6149455, 51.7203314, 7.022661, 7.2056326]",63460,7.0829054,197464385,"[""Marl, Kreis Recklinghausen, Regierungsbezirk M\u00fcnster, Nordrhein-Westfalen, Deutschland"", ""Marl"", ""Marl ""]",51.6485843,1655.9,83695,548.0
"""""",4352.6,"[49.5952685, 49.6752685, 8.3203088, 8.4003088]",240112249,8.3603088,601786,"[""Worms, Rheinland-Pfalz, 67547, Deutschland"", ""Worms "", ""Worms""]",49.6352685,1853.6,83081,631.3
"""""",2657.3,"[51.7911104, 51.8711104, 12.2029261, 12.2829261]",240061254,12.2429261,577702,"[""Dessau-Ro\u00dflau, Sachsen-Anhalt, 06842, Deutschland"", ""Dessau-Ro\u00dflau"", ""Dessau ""]",51.8311104,1762.8,82111,517.5
"""""","""""","[51.2931831, 51.3814164, 7.0013137, 7.1697795]",56679,7.0439912,197686408,"[""Velbert, Kreis Mettmann, Regierungsbezirk D\u00fcsseldorf, Nordrhein-Westfalen, Deutschland"", ""Velbert""]",51.3406713,"""""",82061,""""""
"""""",4416.7,"[52.2470645, 52.364871, 8.7920612, 8.9983147]",139087,8.9168852,198335685,"[""Minden, Kreis Minden-L\u00fcbbecke, Regierungsbezirk Detmold, Nordrhein-Westfalen, Deutschland"", ""Minden"", ""Minden ""]",52.2881045,1507.1,81698,540.9
"""""",3715.2,"[54.0315956, 54.1115956, 9.9465296, 10.0265296]",25076969,9.9865296,118129,"[""Neum\u00fcnster, Schleswig-Holstein, 24534, Deutschland"", ""Neum\u00fcnster "", ""Neum\u00fcnster""]",54.0715956,1710.0,79335,626.0
"""""",5408.3,"[53.6481241, 53.759467, 9.9347555, 10.0729426]",422634,9.9891914,198112543,"[""Norderstedt, Segeberg, Schleswig-Holstein, Deutschland"", ""Norderstedt "", ""Norderstedt""]",53.7089898,3193.3,78679,668.2
"""""",5051.0,"[53.008095, 53.088095, 8.5886066, 8.6686066]",240077210,8.6286066,593399,"[""Delmenhorst, Niedersachsen, 27749, Deutschland"", ""Delmenhorst"", ""Delmenhorst ""]",53.048095,1770.8,77521,602.1
"""""",8684.2,"[49.8526723, 49.9326723, 10.8476149, 10.9276149]",1646638496,10.8876149,17498162,"[""Bamberg, Oberfranken, Bayern, 96047, Deutschland"", ""Bamberg "", ""Bamberg""]",49.8926723,3052.3,77179,992.6
"""""",3985.5,"[51.2165296, 51.3223372, 6.2642195, 6.4578125]",88531,6.3904284,198055816,"[""Viersen, Kreis Viersen, Regierungsbezirk D\u00fcsseldorf, Nordrhein-Westfalen, Deutschland"", ""Viersen "", ""Viersen""]",51.2561445,1741.7,76586,550.0
"""""",3253.4,"[53.4878793, 53.5678793, 8.066301, 8.146301]",240098830,8.106301,587115,"[""Wilhelmshaven, Niedersachsen, 26382, Deutschland"", ""Wilhelmshaven "", ""Wilhelmshaven""]",53.5278793,1493.0,76316,505.9
"""""","""""","[50.7371111, 50.8598656, 8.6274159, 8.8581288]",225494,8.7757742,198163373,"[""Marburg, Landkreis Marburg-Biedenkopf, Regierungsbezirk Gie\u00dfen, Hessen, Deutschland"", ""Marburg""]",50.8117327,"""""",76226,""""""
"""""",3358.7,"[52.1918785, 52.3419237, 7.3655076, 7.5860993]",155707,7.4373615,198727468,"[""Rheine, Kreis Steinfurt, Regierungsbezirk M\u00fcnster, Nordrhein-Westfalen, Deutschland"", ""Rheine "", ""Rheine""]",52.2797707,1490.3,76018,574.2
"""""",4835.0,"[51.5326431, 51.6235979, 6.9208602, 7.0321195]",63504,6.9877343,198111004,"[""Gladbeck, Kreis Recklinghausen, Regierungsbezirk M\u00fcnster, Nordrhein-Westfalen, Deutschland"", ""Gladbeck "", ""Gladbeck""]",51.5718665,1945.3,75689,652.6
"""""","""""","[51.6227637, 51.801026, 6.8938575, 7.0882141]",63505,6.9647431,198025342,"[""Dorsten, Kreis Recklinghausen, Regierungsbezirk M\u00fcnster, Nordrhein-Westfalen, Deutschland"", ""Dorsten""]",51.6604071,"""""",75252,""""""
"""""",6200.0,"[53.1918393, 53.2866442, 10.3308253, 10.5143562]",2420744,10.407855,198371214,"[""L\u00fcneburg, Niedersachsen, Deutschland"", ""L\u00fcneburg "", ""L\u00fcneburg""]",53.248706,2583.7,75192,735.6
"""""",7306.1,"[50.761555, 50.8742716, 7.0771987, 7.2148996]",55060,7.1593271,197432297,"[""Troisdorf, Rhein-Sieg-Kreis, Regierungsbezirk K\u00f6ln, Nordrhein-Westfalen, Deutschland"", ""Troisdorf"", ""Troisdorf ""]",50.8153071,2480.0,74870,750.0
"""""",3942.0,"[51.8587332, 51.9982701, 8.7630753, 8.9894431]",142681,8.8791526,197798798,"[""Detmold, Kreis Lippe, Regierungsbezirk Detmold, Nordrhein-Westfalen, Deutschland"", ""Detmold "", ""Detmold""]",51.936284,1638.9,74353,519.8
"""""",5315.9,"[49.9027202, 49.9827202, 11.5363079, 11.6163079]",21636385,11.5763079,115989,"[""Bayreuth, Oberfranken, Bayern, 95444, Deutschland"", ""Bayreuth"", ""Bayreuth ""]",49.9427202,2213.0,73999,519.6
"""""",4388.9,"[51.5201869, 51.6262817, 7.2424963, 7.3718796]",56664,7.3106175,197429694,"[""Castrop-Rauxel, Kreis Recklinghausen, Regierungsbezirk M\u00fcnster, Nordrhein-Westfalen, Deutschland"", ""Castrop-Rauxel "", ""Castrop-Rauxel""]",51.5646195,2074.8,73989,638.0
"""""",2494.0,"[51.3547136, 51.4913301, 7.8640301, 8.2102601]",157396,8.0605908,198136083,"[""Arnsberg, Hochsauerlandkreis, Regierungsbezirk Arnsberg, Nordrhein-Westfalen, Deutschland"", ""Arnsberg "", ""Arnsberg""]",51.4002384,1305.9,73814,526.7
"""""",4780.2,"[51.1551181, 51.2707624, 7.5522069, 7.7232561]",168563,7.6395513,198776770,"[""L\u00fcdenscheid, M\u00e4rkischer Kreis, Regierungsbezirk Arnsberg, Nordrhein-Westfalen, Deutschland"", ""L\u00fcdenscheid "", ""L\u00fcdenscheid""]",51.218116,1623.8,72894,514.8
"""""","""""","[52.3115514, 52.541789, 12.3613397, 12.7256202]",62470,12.5497933,197724892,"[""Brandenburg an der Havel, Brandenburg, Deutschland"", ""Brandenburg an der Havel""]",52.4108261,"""""",71886,""""""
"""""",8950.0,"[48.511294, 48.5653552, 12.1093163, 12.2076402]",263882467,12.1516551,138871635,"[""Landshut, NB, Bayern, Deutschland"", ""Landshut"", ""Landshut ""]",48.536217,3968.8,71193,875.0
"""""","""""","[51.7898183, 51.9175908, 6.4725106, 6.7211799]",162715,6.6148669,197820968,"[""Bocholt, Kreis Borken, Regierungsbezirk M\u00fcnster, Nordrhein-Westfalen, Deutschland"", ""Bocholt""]",51.8382715,"""""",71036,""""""
"""""","""""","[49.9340542, 50.0140542, 9.1093636, 9.1893636]",240047795,9.1493636,580579,"[""Aschaffenburg, Unterfranken, Bayern, 63739, Deutschland"", ""Aschaffenburg""]",49.9740542,"""""",69928,""""""
"""""",4270.5,"[52.5627418, 52.7283124, 9.9828941, 10.2128957]",1797918,10.081052,198526905,"[""Celle, Landkreis Celle, Niedersachsen, Deutschland"", ""Celle"", ""Celle ""]",52.624056,1483.3,69706,566.7
"""""","""""","[47.6867063, 47.7667063, 10.2768835, 10.3568835]",240126519,10.3168835,244120472,"[""Kempten (Allg\u00e4u), Schwaben, Bayern, 87435, Deutschland"", ""Kempten (Allg\u00e4u)""]",47.7267063,"""""",68330,""""""
"""""","""""","[50.4994847, 50.6293394, 9.5659893, 9.7318787]",454863,9.676511,198887630,"[""Fulda, Landkreis Fulda, Regierungsbezirk Kassel, Hessen, Deutschland, Europe"", ""Fulda""]",50.5521486,"""""",67973,""""""
"""""",3600.0,"[51.6252638, 51.7277848, 8.1827493, 8.4850582]",152781,8.347194,198726175,"[""Lippstadt, Kreis Soest, Regierungsbezirk Arnsberg, Nordrhein-Westfalen, Deutschland"", ""Lippstadt "", ""Lippstadt""]",51.6747074,1756.7,67936,597.8
"""""","""""","[48.7481716, 48.8987785, 9.9714036, 10.2779161]",915486,10.0931765,198014198,"[""Aalen, Verwaltungsgemeinschaft Aalen, Ostalbkreis, Regierungsbezirk Stuttgart, Baden-W\u00fcrttemberg, Deutschland"", ""Aalen""]",48.8362705,"""""",67849,""""""
"""""","""""","[51.5324525, 51.6081392, 6.6864934, 6.8661487]",54462,6.7345106,197713288,"[""Dinslaken, Kreis Wesel, Regierungsbezirk D\u00fcsseldorf, Nordrhein-Westfalen, Deutschland"", ""Dinslaken""]",51.5623618,"""""",67489,""""""
"""""",4163.2,"[52.0862769, 52.1448612, 8.6363162, 8.726706]",2440448,8.6711118,198650474,"[""Herford-Stadt, Herford, Kreis Herford, Regierungsbezirk Detmold, Nordrhein-Westfalen, Deutschland"", ""Herford "", ""Herford""]",52.1152245,1541.2,66923,572.2
"""""",4628.2,"[50.8245397, 50.9254194, 6.549486, 6.8052384]",168483,6.694734,197826528,"[""Kerpen, Rhein-Erft-Kreis, Regierungsbezirk K\u00f6ln, Nordrhein-Westfalen, Deutschland"", ""Kerpen"", ""Kerpen ""]",50.8696345,2321.1,65420,1000.0
"""""","""""","[50.4304178, 50.5748845, 12.0594107, 12.2264262]",409608,12.1346523,198278223,"[""Plauen, Vogtlandkreis, Sachsen, Deutschland"", ""Plauen""]",50.4950632,"""""",65148,""""""
"""""","""""","[49.9387245, 50.0252731, 8.3563769, 8.5493031]",444912,8.4118279,198001629,"[""R\u00fcsselsheim am Main, Kreis Gro\u00df-Gerau, Regierungsbezirk Darmstadt, Hessen, 65428, Deutschland"", ""R\u00fcsselsheim am Main""]",49.9948956,"""""",64922,""""""
"""""","""""","[50.4118038, 50.5091018, 7.3834047, 7.5832597]",79194,7.4663112,198061147,"[""Neuwied, Landkreis Neuwied, Rheinland-Pfalz, Deutschland"", ""Neuwied""]",50.4302589,"""""",64661,""""""
"""""","""""","[48.6737578, 48.7468285, 8.9047675, 9.1083624]",722092,9.0035455,198363039,"[""Sindelfingen, Landkreis B\u00f6blingen, Regierungsbezirk Stuttgart, Baden-W\u00fcrttemberg, Deutschland"", ""Sindelfingen""]",48.7084162,"""""",64599,""""""
"""""",6000.0,"[50.9402813, 51.0202813, 11.2890855, 11.3690855]",423889907,11.3290855,246526814,"[""Weimar, Th\u00fcringen, 99423, Deutschland"", ""Weimar "", ""Weimar""]",50.9802813,2005.1,64426,595.8
"""""",4029.1,"[53.4441983, 53.6189995, 13.1367108, 13.3441823]",62705,13.2602781,198679514,"[""Neubrandenburg, Mecklenburgische Seenplatte, Mecklenburg-Vorpommern, Deutschland"", ""Neubrandenburg "", ""Neubrandenburg""]",53.5574458,1815.2,64259,579.9
"""""","""""","[51.0744014, 51.1150341, 6.8123941, 6.8485717]",3696971,6.8407931,198692038,"[""Dormagen, Rhein-Kreis Neuss, Regierungsbezirk D\u00fcsseldorf, Nordrhein-Westfalen, 41539, Deutschland"", ""Dormagen""]",51.0941656,"""""",64177,""""""
"""""",4288.3,"[51.0780368, 51.0984876, 6.5767524, 6.6144213]",8010070,6.5835365,199150402,"[""Grevenbroich, Rhein-Kreis Neuss, Regierungsbezirk D\u00fcsseldorf, Nordrhein-Westfalen, 41515, Deutschland"", ""Grevenbroich"", ""Grevenbroich ""]",51.0905783,2027.0,63204,544.4
"""""",8678.6,"[47.8139273, 47.8939273, 12.087262, 12.167262]",51296461,12.127262,230049,"[""Rosenheim, Bayern, Obb, Bayern, 83022, Deutschland"", ""Rosenheim"", ""Rosenheim ""]",47.8539273,4785.7,63080,500.0
"""""",5080.8,"[51.5508324, 51.6341591, 7.0666089, 7.1796486]",63503,7.1368071,198681402,"[""Herten, Kreis Recklinghausen, Regierungsbezirk M\u00fcnster, Nordrhein-Westfalen, Deutschland"", ""Herten"", ""Herten ""]",51.5942009,1693.6,61669,530.7
"""""",5045.9,"[50.9159819, 51.0219049, 6.5635471, 6.7674016]",168469,6.6410004,197826488,"[""Bergheim, Rhein-Erft-Kreis, Regierungsbezirk K\u00f6ln, Nordrhein-Westfalen, Deutschland"", ""Bergheim "", ""Bergheim""]",50.9540457,2006.2,61099,780.5
"""""","""""","[48.7145541, 48.8444338, 9.7137136, 9.9435797]",2792080,9.7963529,198437990,"[""Schw\u00e4bisch Gm\u00fcnd, Verwaltungsgemeinschaft Schw\u00e4bisch Gm\u00fcnd, Ostalbkreis, Regierungsbezirk Stuttgart, Baden-W\u00fcrttemberg, Deutschland"", ""Schw\u00e4bisch Gm\u00fcnd""]",48.8001179,"""""",60914,""""""
"""""",4781.1,"[52.397959, 52.5012183, 9.484328, 9.6453795]",59417,9.6005102,198017255,"[""Garbsen, Region Hannover, Niedersachsen, Deutschland"", ""Garbsen"", ""Garbsen ""]",52.4276606,2299.8,60875,989.6
"""""","""""","[51.6162996, 51.7236065, 6.4603134, 6.7137325]",58590,6.617087,198104370,"[""Wesel, Kreis Wesel, Regierungsbezirk D\u00fcsseldorf, Nordrhein-Westfalen, Deutschland"", ""Wesel""]",51.6576909,"""""",60496,""""""
"""""","""""","[47.6378052, 47.7378725, 9.3815131, 9.5608112]",2783849,9.4797531,198534499,"[""Friedrichshafen, Verwaltungsgemeinschaft Friedrichshafen, Bodenseekreis, Regierungsbezirk T\u00fcbingen, Baden-W\u00fcrttemberg, Deutschland"", ""Friedrichshafen""]",47.6505715,"""""",60088,""""""
"""""","""""","[50.8368754, 50.9115756, 6.7786616, 6.9232481]",162473,6.876568,198775072,"[""H\u00fcrth, Rhein-Erft-Kreis, Regierungsbezirk K\u00f6ln, Nordrhein-Westfalen, 50354, Deutschland"", ""H\u00fcrth""]",50.8807379,"""""",59762,""""""
"""""",5198.7,"[54.245042, 54.3475665, 12.99386, 13.1781757]",26225,13.0904622,198714448,"[""Stralsund, Vorpommern-R\u00fcgen, Mecklenburg-Vorpommern, Deutschland"", ""Stralsund "", ""Stralsund""]",54.3159851,2069.8,59517,757.6
"""""","""""","[48.3968238, 48.5526917, 7.8616433, 8.0284868]",452988,7.944378,197983145,"[""Offenburg, Verwaltungsgemeinschaft Offenburg, Ortenaukreis, Regierungsbezirk Freiburg, Baden-W\u00fcrttemberg, Deutschland"", ""Offenburg""]",48.4716556,"""""",59060,""""""
"""""",3451.1,"[54.0541157, 54.1853448, 13.3194771, 13.5078273]",62363,13.3815238,197690960,"[""Greifswald, Vorpommern-Greifswald, Mecklenburg-Vorpommern, Deutschland"", ""Greifswald"", ""Greifswald ""]",54.095791,1909.1,58886,530.0
"""""","""""","[51.0977227, 51.1077227, 6.9331175, 6.9431175]",4597025889,6.9381175,57060485,"[""Langenfeld (Rheinland), Katzbergstra\u00dfe, Berghausen, Langenfeld, Kreis Mettmann, Regierungsbezirk D\u00fcsseldorf, Nordrhein-Westfalen, 40764, Deutschland"", ""Langenfeld (Rheinland)""]",51.1027227,"""""",58698,""""""
"""""","""""","[52.3012273, 52.3812273, 14.509452, 14.589452]",291222598,14.549452,244121702,"[""Frankfurt (Oder), Brandenburg, 15230, Deutschland"", ""Frankfurt (Oder)""]",52.3412273,"""""",58237,""""""
"""""","""""","[48.3310324, 48.433496, 9.9674293, 10.1315955]",941087,10.00589,198119865,"[""Neu-Ulm, Landkreis Neu-Ulm, Schwaben, Bayern, Deutschland"", ""Neu-Ulm""]",48.3954965,"""""",57727,""""""
"""""",4166.7,"[50.5604752, 50.7029759, 6.710442, 6.9349158]",1403657,6.7871681,198991035,"[""Euskirchen, Kreis Euskirchen, Regierungsbezirk K\u00f6ln, Nordrhein-Westfalen, Deutschland"", ""Euskirchen "", ""Euskirchen""]",50.66129,1859.2,57715,645.8
"""""",3380.0,"[52.0429341, 52.1675652, 9.2592036, 9.461703]",1730383,9.3561569,198683155,"[""Hameln, Landkreis Hameln-Pyrmont, Niedersachsen, Deutschland"", ""Hameln"", ""Hameln ""]",52.1039941,1360.0,57228,540.9
"""""",5322.6,"[51.4904102, 51.5786497, 7.6287533, 7.8429416]",158445,7.689014,197818397,"[""Unna, Kreis Unna, Regierungsbezirk Arnsberg, Nordrhein-Westfalen, Deutschland"", ""Unna"", ""Unna ""]",51.5348835,1774.2,57158,844.7
"""""","""""","[48.6549775, 48.7762403, 9.5912214, 9.752372]",2792098,9.6541116,198729452,"[""G\u00f6ppingen, Vereinbarte Verwaltungsgemeinschaft der Stadt G\u00f6ppingen, Landkreis G\u00f6ppingen, Regierungsbezirk Stuttgart, Baden-W\u00fcrttemberg, Deutschland"", ""G\u00f6ppingen""]",48.7031377,"""""",57094,""""""
"""""",4564.1,"[50.6846999, 50.8056741, 6.1745342, 6.3656141]",157996,6.2295504,197653771,"[""Stolberg, St\u00e4dteregion Aachen, Regierungsbezirk K\u00f6ln, Nordrhein-Westfalen, Deutschland"", ""Stolberg (Rhld.)"", ""Stolberg ""]",50.7702908,1857.1,56751,622.9
"""""","""""","[51.052564, 51.2279599, 14.9116798, 15.0179757]",409676,14.991018,198285322,"[""G\u00f6rlitz, Sachsen, Deutschland"", ""G\u00f6rlitz""]",51.1563185,"""""",56391,""""""
"""""",4968.8,"[50.7782884, 50.8846939, 6.1904859, 6.3409387]",157995,6.2629956,197830479,"[""Eschweiler, St\u00e4dteregion Aachen, Regierungsbezirk K\u00f6ln, Nordrhein-Westfalen, 52249, Deutschland"", ""Eschweiler "", ""Eschweiler""]",50.81753,1666.7,56207,664.6
"""""",5571.4,"[50.7393785, 50.800533, 7.1254004, 7.2456751]",158642,7.1895507,198136860,"[""St. Augustin, Rhein-Sieg-Kreis, Regierungsbezirk K\u00f6ln, Nordrhein-Westfalen, 53757, Deutschland"", ""Sankt Augustin""]",50.7752776,2456.0,55873,914.3
"""""","""""","[51.1405004, 51.1979841, 6.8907327, 6.986593]",66555,6.9307271,198682623,"[""Hilden, Kreis Mettmann, Regierungsbezirk D\u00fcsseldorf, Nordrhein-Westfalen, Deutschland"", ""Hilden""]",51.1674417,"""""",55817,""""""
"""""",9729.9,"[51.2336015, 51.3367399, 6.5851188, 6.7350417]",161503,6.6760958,198729577,"[""Meerbusch, Rhein-Kreis Neuss, Regierungsbezirk D\u00fcsseldorf, Nordrhein-Westfalen, Deutschland"", ""Meerbusch"", ""Meerbusch ""]",51.2652237,4017.5,55548,860.8
"""""","""""","[48.8105117, 48.9091159, 9.2758953, 9.4430764]",401697,9.3158532,198262275,"[""Waiblingen, Rems-Murr-Kreis, Regierungsbezirk Stuttgart, Baden-W\u00fcrttemberg, Deutschland"", ""Waiblingen""]",48.8317396,"""""",55123,""""""
"""""",9245.3,"[48.7180777, 48.7980777, 8.2015239, 8.2815239]",240099245,8.2415239,591622,"[""Baden-Baden, Regierungsbezirk Karlsruhe, Baden-W\u00fcrttemberg, 76530, Deutschland"", ""Baden-Baden "", ""Baden-Baden""]",48.7580777,3177.3,54718,820.8
"""""","""""","[51.3099383, 51.4252894, 7.1080627, 7.2571612]",162828,7.1862486,198139116,"[""Hattingen, Ennepe-Ruhr-Kreis, Regierungsbezirk Arnsberg, Nordrhein-Westfalen, Deutschland"", ""Hattingen""]",51.4007175,"""""",54628,""""""
"""""",4909.5,"[52.4201232, 52.6022057, 7.1935481, 7.4539855]",1075335,7.316584,198359802,"[""Lingen (Ems), Landkreis Emsland, Niedersachsen, Deutschland"", ""Lingen (Ems)"", ""Lingen ""]",52.5224659,1636.5,54117,568.2
"""""",5950.0,"[50.9387455, 51.0659186, 6.7111925, 6.8447836]",168464,6.8029624,197885279,"[""Pulheim, Rhein-Erft-Kreis, Regierungsbezirk K\u00f6ln, Nordrhein-Westfalen, 50259, Deutschland"", ""Pulheim""]",50.9978859,3144.2,53900,823.2
"""""","""""","[50.2003246, 50.2743799, 8.4960683, 8.7124249]",338875,8.56860436306261,198016633,"[""Bad Homburg vor der H\u00f6he, Hochtaunuskreis, Regierungsbezirk Darmstadt, Hessen, Deutschland"", ""Bad Homburg v. d. H\u00f6he""]",50.2373164,"""""",53884,""""""
"""""",5434.5,"[52.0198446, 52.1267779, 8.6532347, 8.8565711]",142623,8.7534422,197809798,"[""Bad Salzuflen, Kreis Lippe, Regierungsbezirk Detmold, Nordrhein-Westfalen, Deutschland"", ""Bad Salzuflen "", ""Bad Salzuflen""]",52.0857452,1811.5,53856,553.7
"""""",5167.4,"[52.4228424, 52.506383, 9.6288452, 9.7766661]",59415,9.738994,198674758,"[""Langenhagen, Region Hannover, Niedersachsen, Deutschland"", ""Langenhagen "", ""Langenhagen""]",52.443118,2650.8,53790,651.6
"""""","""""","[50.0099945, 50.0899945, 10.193302, 10.273302]",240106077,10.233302,593373,"[""Schweinfurt, Unterfranken, Bayern, 97421, Deutschland, Europe"", ""Schweinfurt""]",50.0499945,"""""",53437,""""""
"""""",5970.0,"[49.3139802, 49.3939802, 8.0950021, 8.1750021]",1686996669,8.1350021,17590082,"[""Neustadt, Neustadt an der Weinstra\u00dfe, Rheinland-Pfalz, 67433, Deutschland"", ""Neustadt an der Weinstra\u00dfe"", ""Neustadt ""]",49.3539802,1990.0,53353,518.3
"""""",3469.6,"[52.3597275, 52.5275094, 6.9984549, 7.2030649]",1853267,7.0707659,199060894,"[""Nordhorn, Landkreis Grafschaft Bentheim, Niedersachsen, Deutschland"", ""Nordhorn "", ""Nordhorn""]",52.4359731,1458.3,53278,516.0
"""""","""""","[51.4303047, 51.4403047, 7.7869706, 7.7969706]",1994625303,7.7919706,20310598,"[""Menden (Sauerland), Westtangente, Platte Heide, Menden, M\u00e4rkischer Kreis, Regierungsbezirk Arnsberg, Nordrhein-Westfalen, 58706, Deutschland"", ""Menden (Sauerland)""]",51.4353047,"""""",53046,""""""
"""""","""""","[50.508213, 50.6331927, 8.4438778, 8.6189053]",215978,8.5074406,198215932,"[""Wetzlar, Lahn-Dill-Kreis, Regierungsbezirk Gie\u00dfen, Hessen, Deutschland"", ""Wetzlar""]",50.5525346,"""""",52828,""""""
"""""","""""","[51.7001126, 51.831293, 7.7881907, 7.9915846]",152285,7.8909086,197809612,"[""Ahlen, Kreis Warendorf, Regierungsbezirk M\u00fcnster, Nordrhein-Westfalen, Deutschland"", ""Ahlen""]",51.7627633,"""""",52530,""""""
"""""","""""","[52.1208596, 52.2234034, 10.431872, 10.6439294]",1432648,10.5348215,198483228,"[""Wolfenb\u00fcttel, Landkreis Wolfenb\u00fcttel, Niedersachsen, Deutschland"", ""Wolfenb\u00fcttel""]",52.1625283,"""""",52357,""""""
"""""","""""","[50.8760716, 50.94956, 6.7199507, 6.855158]",168477,6.8081935,198108383,"[""Frechen, Rhein-Erft-Kreis, Regierungsbezirk K\u00f6ln, Nordrhein-Westfalen, 50226, Deutschland"", ""Frechen""]",50.9096219,"""""",52212,""""""
"""""",2920.0,"[52.1980421, 52.3460605, 7.6036447, 7.8429724]",155641,7.7151417,198772763,"[""Ibbenb\u00fcren, Kreis Steinfurt, Regierungsbezirk M\u00fcnster, Nordrhein-Westfalen, Deutschland"", ""Ibbenb\u00fcren "", ""Ibbenb\u00fcren""]",52.2774772,1571.1,52037,673.9
"""""",6322.8,"[48.5348229, 48.6148229, 13.4209744, 13.5009744]",240057351,13.4609744,579237,"[""Passau, NB, Bayern, 94032, Deutschland"", ""Passau"", ""Passau ""]",48.5748229,2107.6,51781,691.3
"""""",3726.4,"[51.7668236, 51.8042577, 6.1079035, 6.1659681]",3301021,6.13136741533014,199248616,"[""Kleve, Kreis Kleve, Regierungsbezirk D\u00fcsseldorf, Nordrhein-Westfalen, 47533, Deutschland"", ""Kleve "", ""Kleve""]",51.7854839,1854.6,51320,772.4
"""""","""""","[51.2226198, 51.299894, 6.4129717, 6.6259906]",88547,6.5446958,198305351,"[""Willich, Kreis Viersen, Regierungsbezirk D\u00fcsseldorf, Nordrhein-Westfalen, 47877, Deutschland"", ""Willich""]",51.2641433,"""""",51179,""""""
"""""","""""","[51.8438787, 52.0059348, 10.3173163, 10.6511856]",1421453,10.4266284,198261845,"[""Goslar, Landkreis Goslar, Niedersachsen, Deutschland, Europe"", ""Goslar""]",51.9059936,"""""",51128,""""""
"""""","""""","[49.2765553, 49.3565553, 8.393615, 8.473615]",240074382,8.433615,592743,"[""Speyer, Rheinland-Pfalz, 67346, Deutschland"", ""Speyer""]",49.3165553,"""""",50931,""""""
"""""",4381.2,"[53.3270541, 53.4070541, 7.1658304, 7.2458304]",240126844,7.2058304,593726,"[""Emden, Niedersachsen, 26721, Deutschland"", ""Emden"", ""Emden ""]",53.3670541,1460.4,50607,500.0
"""""",3541.7,"[50.9731423, 51.0862249, 7.4351341, 7.7136816]",173858,7.5630545,197675437,"[""Gummersbach, Oberbergischer Kreis, Regierungsbezirk K\u00f6ln, Nordrhein-Westfalen, Deutschland"", ""Gummersbach "", ""Gummersbach""]",51.0277658,1474.7,50497,581.8
"""""","""""","[49.2089566, 50.4889566, 7.2228083, 8.5028083]",240068876,7.8628083,597158,"[""Bad Kreuznach, Rheinland-Pfalz, 55545, Deutschland"", ""Bad Kreuznach""]",49.8489566,"""""",50484,""""""
"""""","""""","[47.701165, 47.8155938, 9.483661, 9.6631781]",2808301,9.612468,199130997,"[""Ravensburg, Verwaltungsverband Mittleres Schussental, Landkreis Ravensburg, Regierungsbezirk T\u00fcbingen, Baden-W\u00fcrttemberg, Deutschland"", ""Ravensburg""]",47.7811014,"""""",50393,""""""
"""""","""""","[48.6550168, 48.7037556, 8.9322423, 9.1140545]",722090,9.0113444,198005264,"[""B\u00f6blingen, Landkreis B\u00f6blingen, Regierungsbezirk Stuttgart, Baden-W\u00fcrttemberg, Deutschland"", ""B\u00f6blingen""]",48.684969,"""""",50035,""""""
"""""","""""","[52.2580972, 52.3744919, 10.1176828, 10.3483778]",1182561,10.2349489,198385418,"[""Peine, Landkreis Peine, Niedersachsen, Deutschland"", ""Peine""]",52.3217849,"""""",49901,""""""
"""""",4642.9,"[50.7171172, 50.862727, 6.6785891, 6.8520105]",168482,6.78154922122218,197667140,"[""Erftstadt, Rhein-Erft-Kreis, Regierungsbezirk K\u00f6ln, Nordrhein-Westfalen, 50374, Deutschland"", ""Erftstadt""]",50.789982,2298.4,49647,600.0
"""""",4588.2,"[53.7260891, 53.7813047, 9.6216231, 9.7214726]",443302,9.6524559,198000238,"[""Elmshorn, Pinneberg, Schleswig-Holstein, Deutschland"", ""Elmshorn""]",53.7532486,2497.5,49618,1096.5
"""""",3220.3,"[48.643614, 48.7832977, 10.1023345, 10.2792202]",2791896,10.152923,198607915,"[""Heidenheim, Verwaltungsgemeinschaft Heidenheim an der Brenz, Landkreis Heidenheim, Regierungsbezirk Stuttgart, Baden-W\u00fcrttemberg, Deutschland"", ""Heidenheim an der Brenz"", ""Heidenheim ""]",48.6767637,1794.2,49297,781.2
"""""",7090.9,"[47.5918984, 47.6773603, 7.6335003, 7.7290086]",2787952,7.6607218,198456651,"[""L\u00f6rrach, Verwaltungsgemeinschaft L\u00f6rrach, Landkreis L\u00f6rrach, Regierungsbezirk Freiburg, Baden-W\u00fcrttemberg, Deutschland"", ""L\u00f6rrach"", ""L\u00f6rrach ""]",47.6120896,3549.1,49213,1566.7
"""""","""""","[48.8141378, 48.9197337, 8.115802, 8.2646818]",907178,8.2088088,198035600,"[""Rastatt, Vereinbarte Verwaltungsgemeinschaft Rastatt, Landkreis Rastatt, Regierungsbezirk Karlsruhe, Baden-W\u00fcrttemberg, 76437, Deutschland"", ""Rastatt""]",48.8574209,"""""",49100,""""""
"""""",3158.3,"[51.5877449, 51.6610852, 7.5605974, 7.6904286]",158457,7.6362876,197831174,"[""Bergkamen, Kreis Unna, Regierungsbezirk Arnsberg, Nordrhein-Westfalen, 59192, Deutschland"", ""Bergkamen""]",51.6149389,1795.1,48829,538.9
"""""",3500.0,"[52.1624377, 52.2764885, 8.7206964, 8.8720625]",144930,8.7981244,197858020,"[""Bad Oeynhausen, Kreis Minden-L\u00fcbbecke, Regierungsbezirk Detmold, Nordrhein-Westfalen, Deutschland"", ""Bad Oeynhausen "", ""Bad Oeynhausen""]",52.2014399,1480.0,48747,549.7
"""""","""""","[51.7896083, 51.8979135, 8.1996163, 8.4018021]",78727,8.2985615,197718666,"[""Rheda-Wiedenbr\u00fcck, Kreis G\u00fctersloh, Regierungsbezirk Detmold, Nordrhein-Westfalen, 33378, Deutschland"", ""Rheda-Wiedenbr\u00fcck""]",51.8428202,"""""",48685,""""""
"""""",5000.0,"[53.7588756, 53.892285, 8.5520184, 8.863906]",1518688,8.698286,198471802,"[""Cuxhaven, Landkreis Cuxhaven, Niedersachsen, Deutschland"", ""Cuxhaven "", ""Cuxhaven""]",53.86878,1695.0,48470,831.4
"""""","""""","[49.5045804, 49.5845804, 8.3140061, 8.3940061]",1705457707,8.3540061,17734621,"[""Frankenthal, Frankenthal (Pfalz), Rheinland-Pfalz, 67227, Deutschland"", ""Frankenthal (Pfalz)""]",49.5445804,"""""",48417,""""""
"""""","""""","[48.330606, 48.4490313, 11.6404507, 11.7925143]",30005,11.7439565,198714642,"[""Freising, Landkreis Freising, Obb, Bayern, Deutschland"", ""Freising""]",48.4008273,"""""",48318,""""""
"""""","""""","[48.745869, 48.8334998, 8.9571285, 9.0688097]",722150,9.0127567,198175009,"[""Leonberg, Landkreis B\u00f6blingen, Regierungsbezirk Stuttgart, Baden-W\u00fcrttemberg, 71229, Deutschland"", ""Leonberg""]",48.7997485,"""""",48222,""""""
"""""","""""","[50.7186347, 50.8053615, 6.8594354, 7.0667005]",168426,6.9890508,197667020,"[""Bornheim, Rhein-Sieg-Kreis, Regierungsbezirk K\u00f6ln, Nordrhein-Westfalen, 53332, Deutschland"", ""Bornheim""]",50.7627913,"""""",48173,""""""
"""""",6346.2,"[47.6968108, 47.8169484, 8.8084216, 8.9267002]",2785095,8.8348709,198534621,"[""Singen, Verwaltungsgemeinschaft Singen (Hohentwiel), Landkreis Konstanz, Regierungsbezirk Freiburg, Baden-W\u00fcrttemberg, 78224, Deutschland"", ""Singen "", ""Singen (Hohentwiel)""]",47.7617515,2871.3,47716,911.7
"""""","""""","[52.2103588, 52.2203588, 7.0149626, 7.0249626]",4172254775,7.0199626,53036904,"[""Gronau (Westf), Steinstra\u00dfe, Gronau, Kreis Borken, Regierungsbezirk M\u00fcnster, Nordrhein-Westfalen, 48599, Deutschland"", ""Gronau (Westf.)""]",52.2153588,"""""",47671,""""""
"""""","""""","[48.8419801, 48.9219801, 12.529716, 12.609716]",46902829,12.569716,224625,"[""Straubing, NB, Bayern, 94315, Deutschland"", ""Straubing""]",48.8819801,"""""",47586,""""""
"""""","""""","[51.5214743, 51.6275581, 7.9831444, 8.1762011]",153481,8.1061259,198726432,"[""Soest, Kreis Soest, Regierungsbezirk Arnsberg, Nordrhein-Westfalen, 59494, Deutschland"", ""Soest""]",51.5725501,"""""",47376,""""""
"""""",4809.1,"[53.5386106, 53.7012013, 9.3738591, 9.5506402]",444799,9.475438,198120217,"[""Stade, Niedersachsen, Deutschland"", ""Stade"", ""Stade ""]",53.599794,1966.7,47330,540.9
"""""",5454.6,"[50.6962221, 50.8132773, 7.2280253, 7.4390372]",36042,7.2847945,197361353,"[""Hennef (Sieg), Rhein-Sieg-Kreis, Regierungsbezirk K\u00f6ln, Nordrhein-Westfalen, 53773, Deutschland"", ""Hennef (Sieg)"", ""Hennef ""]",50.7754417,2298.9,47293,727.3
"""""","""""","[48.227495, 48.3117077, 11.3843887, 11.5025338]",934468,11.4354419,198351334,"[""Dachau, Landkreis Dachau, Obb, Bayern, 85221, Deutschland"", ""Dachau""]",48.2592477,"""""",47255,""""""
"""""","""""","[50.8417801, 50.8940929, 6.1218109, 6.230616]",157993,6.1620774,198773719,"[""Alsdorf, St\u00e4dteregion Aachen, Regierungsbezirk K\u00f6ln, Nordrhein-Westfalen, 52477, Deutschland"", ""Alsdorf""]",50.8771537,"""""",46891,""""""
"""""",3825.0,"[49.2855938, 49.4074009, 7.1058824, 7.2689473]",1187145,7.18432094881367,198361621,"[""Neunkirchen, Landkreis Neunkirchen, Saarland, Deutschland"", ""Neunkirchen "", ""Neunkirchen""]",49.3464752,1275.0,46767,500.0
"""""","""""","[51.3852385, 51.4759983, 7.5032305, 7.6350452]",158413,7.5674652,198773901,"[""Schwerte, Kreis Unna, Regierungsbezirk Arnsberg, Nordrhein-Westfalen, 58239, Deutschland"", ""Schwerte""]",51.445525,"""""",46641,""""""
"""""","""""","[51.7785497, 51.9262598, 7.0996915, 7.4338712]",157767,7.2791406,198099027,"[""D\u00fclmen, Kreis Coesfeld, Regierungsbezirk M\u00fcnster, Nordrhein-Westfalen, 48249, Deutschland"", ""D\u00fclmen""]",51.8283677,"""""",46507,""""""
"""""","""""","[50.8076786, 50.9134609, 6.057427, 6.1454703]",157992,6.0950514,197876459,"[""Herzogenrath, St\u00e4dteregion Aachen, Regierungsbezirk K\u00f6ln, Nordrhein-Westfalen, 52134, Deutschland"", ""Herzogenrath""]",50.8684545,"""""",46462,""""""
"""""",3323.5,"[52.1079455, 52.2831257, 8.2030537, 8.5173146]",1085139,8.338667,198854971,"[""Melle, Landkreis Osnabr\u00fcck, Niedersachsen, Deutschland"", ""Melle"", ""Melle ""]",52.200762,1666.7,46451,657.9
"""""","""""","[49.1582825, 49.2382825, 8.0723441, 8.1523441]",240071404,8.1123441,579694,"[""Landau, Landau in der Pfalz, Rheinland-Pfalz, 76829, Deutschland"", ""Landau in der Pfalz""]",49.1982825,"""""",46292,""""""
"""""","""""","[51.8186888, 52.013327, 12.4849047, 12.7767377]",1060610,12.646761,198040725,"[""Wittenberg, Sachsen-Anhalt, Deutschland"", ""Wittenberg""]",51.8666527,"""""",46272,""""""
"""""","""""","[48.2865257, 48.3821335, 7.7858394, 7.9787097]",453002,7.88320649377849,197983190,"[""Lahr, Verwaltungsgemeinschaft Lahr/Schwarzwald, Ortenaukreis, Regierungsbezirk Freiburg, Baden-W\u00fcrttemberg, 77933, Deutschland"", ""Lahr/Schwarzwald""]",48.33460175,"""""",46156,""""""
"""""","""""","[50.1673005, 50.2452253, 8.4534459, 8.6387555]",417461,8.580452,198271021,"[""Oberursel, Hochtaunuskreis, Regierungsbezirk Darmstadt, Hessen, 61440, Deutschland"", ""Oberursel (Taunus)""]",50.2005518,"""""",46069,""""""
"""""","""""","[50.2819015, 50.3619015, 11.8778807, 11.9578807]",28979768,11.9178807,149993,"[""Hof, Oberfranken, Bayern, 95028, Deutschland"", ""Hof""]",50.3219015,"""""",45950,""""""
"""""","""""","[48.6237554, 48.694556, 9.1597336, 9.2703068]",2796535,9.2236805,198516459,"[""Filderstadt, Landkreis Esslingen, Regierungsbezirk Stuttgart, Baden-W\u00fcrttemberg, 70794, Deutschland"", ""Filderstadt""]",48.6616311,"""""",45807,""""""
"""""","""""","[48.7782911, 48.8626678, 9.2371585, 9.3196965]",401692,9.278085,197861800,"[""Fellbach, Rems-Murr-Kreis, Regierungsbezirk Stuttgart, Baden-W\u00fcrttemberg, Deutschland"", ""Fellbach""]",48.8181556,"""""",45783,""""""
"""""",3253.2,"[52.1633372, 52.2586863, 8.4750735, 8.6357819]",147447,8.5827558,198719191,"[""B\u00fcnde, Kreis Herford, Regierungsbezirk Detmold, Nordrhein-Westfalen, 32257, Deutschland"", ""B\u00fcnde""]",52.2003644,1317.1,45712,522.7
"""""","""""","[50.892809, 50.9912832, 10.6223035, 10.781844]",2818690,10.6945265,198722631,"[""Gotha, Landkreis Gotha, Th\u00fcringen, 99867, Deutschland, Europe"", ""Gotha""]",50.9462725,"""""",45589,""""""
"""""","""""","[49.4682379, 49.5938416, 8.6033587, 8.7804728]",454175,8.6717306,198291603,"[""Weinheim, Rhein-Neckar-Kreis, Regierungsbezirk Karlsruhe, Baden-W\u00fcrttemberg, 69469, Deutschland"", ""Weinheim""]",49.5463334,"""""",45114,""""""
"""""",3384.9,"[48.1592196, 48.315199, 8.8834636, 9.0806477]",2779017,9.0104093,199192995,"[""Albstadt, Gemeindeverwaltungsverband Albstadt, Zollernalbkreis, Regierungsbezirk T\u00fcbingen, Baden-W\u00fcrttemberg, Deutschland"", ""Albstadt"", ""Albstadt ""]",48.2342372,1468.6,45023,561.0
"""""",5258.0,"[49.9595812, 50.0725986, 8.8187867, 8.944647]",659746,8.8853392,198341056,"[""Rodgau, Landkreis Offenbach, Regierungsbezirk Darmstadt, Hessen, Deutschland"", ""Rodgau""]",50.0176771,2622.1,44725,1035.0
"""""","""""","[49.0595244, 49.2004318, 8.5081576, 8.6896914]",659820,8.5980244,198362516,"[""Bruchsal, Verwaltungsgemeinschaft Bruchsal, Landkreis Karlsruhe, Regierungsbezirk Karlsruhe, Baden-W\u00fcrttemberg, 76646, Deutschland"", ""Bruchsal""]",49.124118,"""""",44532,""""""
"""""","""""","[51.1927497, 51.2425308, 6.8710696, 6.9951823]",66535,6.9123242,197698711,"[""Erkrath, Kreis Mettmann, Regierungsbezirk D\u00fcsseldorf, Nordrhein-Westfalen, 40699, Deutschland"", ""Erkrath""]",51.2222062,"""""",44409,""""""
"""""","""""","[50.7848517, 50.8514325, 6.8334592, 6.9436983]",168481,6.9032947,197845871,"[""Br\u00fchl, Rhein-Erft-Kreis, Regierungsbezirk K\u00f6ln, Nordrhein-Westfalen, 50321, Deutschland"", ""Br\u00fchl""]",50.8287139,"""""",44144,""""""
"""""",5300.0,"[52.7091775, 52.8464685, 13.1309851, 13.4306044]",1310102,13.2457591,198432166,"[""Oranienburg, Oberhavel, Brandenburg, 16515, Deutschland"", ""Oranienburg""]",52.7529379,2362.5,43982,659.1
"""""",3741.7,"[52.4387602, 52.6769947, 9.238312, 9.6611885]",1162990,9.4635826,198400289,"[""Neustadt am R\u00fcbenberge, Region Hannover, Niedersachsen, Deutschland"", ""Neustadt am R\u00fcbenberge""]",52.5055135,1866.7,43964,600.0
"""""","""""","[52.3220432, 52.4314396, 9.884847, 10.1563213]",1184255,9.9748557,198385618,"[""Lehrte, Region Hannover, Niedersachsen, 31275, Deutschland"", ""Lehrte""]",52.3749334,"""""",43932,""""""
"""""","""""","[48.3968804, 48.5424393, 8.7555188, 9.0155745]",2778912,8.9336788,198696079,"[""Rottenburg am Neckar, Verwaltungsgemeinschaft Rottenburg am Neckar, Landkreis T\u00fcbingen, Regierungsbezirk T\u00fcbingen, Baden-W\u00fcrttemberg, 72108, Deutschland"", ""Rottenburg am Neckar""]",48.47696,"""""",43615,""""""
"""""",7000.0,"[52.5437922, 52.6127649, 13.0003014, 13.1536965]",1251557,13.0855621,198878402,"[""Falkensee, Havelland, Brandenburg, 14612, Deutschland"", ""Falkensee""]",52.5678244,3123.8,43552,1388.9
"""""",7230.3,"[47.8403788, 47.9203788, 10.582246, 10.662246]",240078045,10.622246,588139,"[""Kaufbeuren, Schwaben, Bayern, 87600, Deutschland"", ""Kaufbeuren""]",47.8803788,2410.1,43478,991.4
"""""","""""","[47.9467696, 48.0267696, 10.141319, 10.221319]",240036844,10.181319,244120471,"[""Memmingen, Schwaben, Bayern, 87700, Deutschland"", ""Memmingen""]",47.9867696,"""""",43470,""""""
"""""",3398.5,"[51.0126515, 51.1170375, 6.2006991, 6.4772716]",67333,6.3160684,197698978,"[""Erkelenz, Kreis Heinsberg, Regierungsbezirk K\u00f6ln, Nordrhein-Westfalen, 41812, Deutschland"", ""Erkelenz""]",51.080992,1783.4,43392,608.0
"""""","""""","[51.5485082, 51.6149748, 7.5902989, 7.7502902]",158453,7.6614305,198099496,"[""Kamen, Kreis Unna, Regierungsbezirk Arnsberg, Nordrhein-Westfalen, 59174, Deutschland"", ""Kamen""]",51.5918443,"""""",43275,""""""
"""""","""""","[48.9242646, 48.9840387, 9.0675527, 9.1666674]",405807,9.1383314,198849837,"[""Bietigheim-Bissingen, Vereinbarte Verwaltungsgemeinschaft der Stadt Bietigheim-Bissingen, Landkreis Ludwigsburg, Regierungsbezirk Stuttgart, Baden-W\u00fcrttemberg, 74321, Deutschland"", ""Bietigheim-Bissingen""]",48.9502631,"""""",43266,""""""
"""""",4996.2,"[51.1786641, 51.2609735, 6.5600139, 6.6758748]",168485,6.6193924,198120824,"[""Kaarst, Rhein-Kreis Neuss, Regierungsbezirk D\u00fcsseldorf, Nordrhein-Westfalen, 41564, Deutschland"", ""Kaarst""]",51.226675,3674.8,43216,806.4
"""""",6743.8,"[53.6086307, 53.6838731, 9.7636444, 9.8286789]",443487,9.7968682,198308821,"[""Pinneberg, Schleswig-Holstein, Deutschland"", ""Pinneberg""]",53.6615506,3011.0,43155,1428.6
"""""","""""","[53.8651019, 53.9430109, 11.3905913, 11.5335218]",62599,11.4647932,197699202,"[""Wismar, Nordwestmecklenburg, Mecklenburg-Vorpommern, Deutschland"", ""Wismar""]",53.8909832,"""""",42906,""""""
"""""","""""","[50.9433, 51.0233, 10.2766999, 10.3566999]",240071610,10.3166999,592086,"[""Eisenach, Th\u00fcringen, 99817, Deutschland, Europe"", ""Eisenach""]",50.9833,"""""",42710,""""""
"""""","""""","[49.6352749, 49.7152749, 12.1231636, 12.2031636]",487224833,12.1631636,4539892,"[""Weiden i.d.OPf., Weiden in der Oberpfalz, OPf, Bayern, 92637, Deutschland"", ""Weiden i.d.OPf.""]",49.6752749,"""""",42543,""""""
"""""","""""","[51.7737275, 51.9328675, 6.7323128, 6.9236203]",162723,6.8582247,198101526,"[""Borken, Kreis Borken, Regierungsbezirk M\u00fcnster, Nordrhein-Westfalen, 46325, Deutschland"", ""Borken""]",51.8443183,"""""",42509,""""""
"""""",3866.7,"[51.2527722, 51.3659405, 6.1538213, 6.3265566]",88686,6.2364082,198066745,"[""Nettetal, Kreis Viersen, Regierungsbezirk D\u00fcsseldorf, Nordrhein-Westfalen, 41334, Deutschland"", ""Nettetal""]",51.3066628,1853.3,42265,559.5
"""""","""""","[49.4054211, 49.4854211, 11.818728, 11.898728]",240071747,11.858728,592530,"[""Amberg, OPf, Bayern, 92224, Deutschland"", ""Amberg""]",49.4454211,"""""",42248,""""""
"""""",4234.4,"[52.4472279, 52.5696038, 10.4242053, 10.6270957]",1392806,10.5445691,198294141,"[""Gifhorn, Niedersachsen, 38518, Deutschland"", ""Gifhorn""]",52.4827905,2076.4,42239,625.0
"""""","""""","[51.4404771, 51.557286, 10.6761482, 10.9479648]",2400430,10.7925317,198368226,"[""Nordhausen, Landkreis Nordhausen, Th\u00fcringen, 99734, Deutschland, Europe"", ""Nordhausen""]",51.5051574,"""""",42014,""""""
"""""",4166.8,"[49.2474202, 49.3863745, 7.2737168, 7.4048307]",1184826,7.3340336,198104188,"[""Homburg, Saarpfalz-Kreis, Saarland, 66424, Deutschland"", ""Homburg "", ""Homburg""]",49.3181673,1509.3,41934,564.3
"""""",3142.9,"[53.4054472, 53.5617576, 7.4018508, 7.6791409]",898628,7.4823808,198342551,"[""Aurich, Landkreis Aurich, Niedersachsen, Deutschland"", ""Aurich"", ""Aurich ""]",53.4695604,1581.4,41854,596.0
"""""",4991.4,"[50.9964629, 51.1221408, 6.0392268, 6.2139301]",158026,6.0984461,198136539,"[""Heinsberg, Kreis Heinsberg, Regierungsbezirk K\u00f6ln, Nordrhein-Westfalen, 52525, Deutschland"", ""Heinsberg"", ""Heinsberg ""]",51.0654268,1663.8,41673,612.5
"""""",4062.5,"[49.2628611, 49.3428611, 10.5322288, 10.6122288]",31015267,10.5722288,164342,"[""Ansbach, Mittelfranken, Bayern, 91522, Deutschland"", ""Ansbach "", ""Ansbach""]",49.3028611,1937.8,41652,500.0
"""""","""""","[49.9533482, 50.0539497, 8.6352236, 8.7669837]",659750,8.7123912,198362471,"[""Dreieich, Landkreis Offenbach, Regierungsbezirk Darmstadt, Hessen, 63303, Deutschland"", ""Dreieich""]",50.011974,"""""",41548,""""""
"""""",5764.2,"[52.3625491, 52.5001637, 9.2727928, 9.5061503]",73888,9.4294425,198056094,"[""Wunstorf, Region Hannover, Niedersachsen, 31515, Deutschland"", ""Wunstorf""]",52.4257979,1921.4,41532,649.0
"""""","""""","[50.8754646, 50.9590788, 13.2660828, 13.4005105]",416561,13.3428889,198074111,"[""Freiberg, Mittelsachsen, Sachsen, 09599, Deutschland"", ""Freiberg""]",50.9169415,"""""",41496,""""""
"""""",5764.7,"[52.2614451, 52.325963, 9.7634639, 9.9144861]",2012733,9.8132829,198560743,"[""Laatzen, Region Hannover, Niedersachsen, 30880, Deutschland"", ""Laatzen"", ""Laatzen b Hannover""]",52.3077423,2857.1,41449,1225.4
"""""","""""","[50.7797872, 50.8280134, 7.1741992, 7.3104812]",173121,7.2070774,198358444,"[""Siegburg, Rhein-Sieg-Kreis, Regierungsbezirk K\u00f6ln, Nordrhein-Westfalen, 53721, Deutschland"", ""Siegburg""]",50.7928332,"""""",41326,""""""
"""""",3940.0,"[50.218112, 50.298112, 10.924463, 11.004463]",26118368,10.964463,134510,"[""Coburg, Oberfranken, Bayern, 96450, Deutschland"", ""Coburg""]",50.258112,1768.0,41236,743.7
"""""",6842.1,"[50.6616848, 50.7476853, 7.1682649, 7.3720923]",173113,7.1935237,198778883,"[""K\u00f6nigswinter, Rhein-Sieg-Kreis, Regierungsbezirk K\u00f6ln, Nordrhein-Westfalen, 53639, Deutschland"", ""K\u00f6nigswinter""]",50.6761759,2280.7,41050,872.8
"""""","""""","[48.576354, 48.6565781, 9.2799198, 9.4169838]",2795565,9.3365463,199195639,"[""N\u00fcrtingen, Vereinbarte Verwaltungsgemeinschaft der Stadt N\u00fcrtingen, Landkreis Esslingen, Regierungsbezirk Stuttgart, Baden-W\u00fcrttemberg, 72622, Deutschland"", ""N\u00fcrtingen""]",48.6265854,"""""",41017,""""""
"""""",2456.8,"[51.1558341, 51.2887748, 11.8585971, 12.0747345]",2405268,11.9667857,238801641,"[""Wei\u00dfenfels, Burgenlandkreis, Sachsen-Anhalt, Deutschland"", ""Wei\u00dfenfels"", ""Wei\u00dfenfels ""]",51.1999793,900.7,40874,544.5
"""""","""""","[51.8310037, 51.9571713, 10.8813728, 11.1748568]",1352956,11.0554519,198438991,"[""Halberstadt, Landkreis Harz, Sachsen-Anhalt, Deutschland"", ""Halberstadt""]",51.8926561,"""""",40871,""""""
"""""","""""","[51.9758594, 52.1043985, 8.8057572, 8.9971731]",142624,8.9012894,197621576,"[""Lemgo, Kreis Lippe, Regierungsbezirk Detmold, Nordrhein-Westfalen, Deutschland"", ""Lemgo""]",52.0280674,"""""",40871,""""""
"""""",6170.7,"[49.2895535, 49.3695535, 10.9795132, 11.0595132]",26752984,11.0195132,139295,"[""Schwabach, Mittelfranken, Bayern, 91126, Deutschland"", ""Schwabach""]",49.3295535,2206.9,40781,569.2
"""""",3365.7,"[49.1596961, 49.2396961, 7.5687847, 7.6487847]",1701700293,7.6087847,17801700,"[""Pirmasens, Rheinland-Pfalz, 66953, Deutschland"", ""Pirmasens"", ""Pirmasens ""]",49.1996961,1121.9,40632,500.0
"""""","""""","[51.0647647, 51.1314443, 6.8529394, 6.9305776]",33070,6.8832264,197668969,"[""Monheim am Rhein, Kreis Mettmann, Regierungsbezirk D\u00fcsseldorf, Nordrhein-Westfalen, 40789, Deutschland"", ""Monheim am Rhein""]",51.0908881,"""""",40598,""""""
"""""","""""","[48.6087303, 48.6722291, 9.3918591, 9.5241535]",2793212,9.4510227,198608211,"[""Kirchheim unter Teck, Vereinbarte Verwaltungsgemeinschaft der Stadt Kirchheim unter Teck, Landkreis Esslingen, Regierungsbezirk Stuttgart, Baden-W\u00fcrttemberg, 73230, Deutschland"", ""Kirchheim unter Teck""]",48.6480545,"""""",40446,""""""
"""""","""""","[49.6537978, 49.730273, 8.5438088, 8.7130697]",537055,8.6227577,198294268,"[""Bensheim, Kreis Bergstra\u00dfe, Regierungsbezirk Darmstadt, Hessen, 64625, Deutschland"", ""Bensheim""]",49.6810158,"""""",40326,""""""
"""""","""""","[48.1057036, 48.1586746, 11.3059679, 11.4128816]",933480,11.3657306,198189962,"[""Germering, Landkreis F\u00fcrstenfeldbruck, Obb, Bayern, 82110, Deutschland"", ""Germering""]",48.1340035,"""""",40285,""""""
"""""","""""","[52.7764335, 52.8822012, 13.6576606, 13.9102101]",1318338,13.7997011,198462083,"[""Eberswalde, Barnim, Brandenburg, Deutschland"", ""Eberswalde""]",52.8351496,"""""",40223,""""""
"""""",4440.0,"[52.1497713, 52.2518996, 8.6636962, 8.7888693]",147449,8.7141587,198091162,"[""L\u00f6hne, Kreis Herford, Regierungsbezirk Detmold, Nordrhein-Westfalen, 32584, Deutschland"", ""L\u00f6hne""]",52.1990346,1480.0,39867,520.0
"""""","""""","[48.6460481, 48.7105066, 9.0848216, 9.2050075]",2796536,9.1525725,198731156,"[""Leinfelden-Echterdingen, Landkreis Esslingen, Regierungsbezirk Stuttgart, Baden-W\u00fcrttemberg, Deutschland"", ""Leinfelden-Echterdingen""]",48.6901796,"""""",39826,""""""
"""""","""""","[52.5621085, 52.6384856, 11.8222815, 11.9311075]",3651556,11.8593217,198624967,"[""Stendal, Sachsen-Anhalt, 39576, Deutschland"", ""Stendal""]",52.6051341,"""""",39822,""""""
"""""",4145.7,"[49.2359512, 49.3198223, 11.3746936, 11.5864273]",1028812,11.4874279019787,198372283,"[""Neumarkt, Landkreis Neumarkt in der Oberpfalz, OPf, Bayern, 92318, Deutschland"", ""Neumarkt "", ""Neumarkt i.d.OPf.""]",49.27806195,2384.0,39822,503.4
"""""","""""","[49.0459744, 49.1668978, 9.6132541, 9.8754428]",391370,9.7369047,198297072,"[""Schw\u00e4bisch Hall, Verwaltungsgemeinschaft Schw\u00e4bisch Hall, Landkreis Schw\u00e4bisch Hall, Regierungsbezirk Stuttgart, Baden-W\u00fcrttemberg, 74523, Deutschland"", ""Schw\u00e4bisch Hall""]",49.1123963,"""""",39818,""""""
"""""",4564.3,"[53.4115224, 53.509454, 9.5971845, 9.7835121]",279078,9.7003941,197964645,"[""Buxtehude, Stade, Niedersachsen, 21614, Deutschland"", ""Buxtehude""]",53.4767351,2450.0,39782,969.6
"""""","""""","[50.0763742, 50.1243144, 8.4214598, 8.4742181]",5807049,8.447324,199368955,"[""Hofheim am Taunus, Hofheim, Main-Taunus-Kreis, Regierungsbezirk Darmstadt, Hessen, Deutschland"", ""Hofheim am Taunus""]",50.086546,"""""",39692,""""""
"""""","""""","[48.7403038, 48.8542558, 9.4731035, 9.5873122]",401643,9.5253326,198455251,"[""Schorndorf, Vereinbarte Verwaltungsgemeinschaft der Stadt Schorndorf, Rems-Murr-Kreis, Regierungsbezirk Stuttgart, Baden-W\u00fcrttemberg, 73614, Deutschland"", ""Schorndorf""]",48.8045259,"""""",39601,""""""
"""""",3359.8,"[50.9871104, 51.0898631, 6.15256, 6.306591]",158005,6.2247322,198099172,"[""H\u00fcckelhoven, Kreis Heinsberg, Regierungsbezirk K\u00f6ln, Nordrhein-Westfalen, 41836, Deutschland"", ""H\u00fcckelhoven""]",51.0552368,1574.9,39585,650.0
"""""","""""","[51.137272, 51.2308401, 14.3240672, 14.4926393]",1309674,14.4275735,198269212,"[""Bautzen - Budy\u0161in, Bautzen, Sachsen, Deutschland"", ""Bautzen""]",51.1813907,"""""",39429,""""""
"""""",2626.0,"[49.1636722, 49.2742608, 6.7112786, 6.9111163]",1184868,6.859519,198104220,"[""V\u00f6lklingen, Regionalverband Saarbr\u00fccken, Saarland, 66333, Deutschland"", ""V\u00f6lklingen""]",49.2522866,1203.9,39376,516.7
"""""","""""","[48.8766523, 48.9758066, 8.3486783, 8.4565002]",659839,8.40427,198141758,"[""Ettlingen, Landkreis Karlsruhe, Regierungsbezirk Karlsruhe, Baden-W\u00fcrttemberg, 76275, Deutschland"", ""Ettlingen""]",48.9397149,"""""",39315,""""""
"""""","""""","[50.9533548, 51.0357914, 13.5805231, 13.6986106]",455475,13.6530329,198829435,"[""Freital, S\u00e4chsische Schweiz-Osterzgebirge, Sachsen, 01705, Deutschland"", ""Freital""]",51.016265,"""""",39300,""""""
"""""","""""","[48.6946689, 48.7442344, 9.21151, 9.311929]",2793022,9.2630693,198729602,"[""Ostfildern, Landkreis Esslingen, Regierungsbezirk Stuttgart, Baden-W\u00fcrttemberg, 73760, Deutschland"", ""Ostfildern""]",48.7178603,"""""",39205,""""""
"""""","""""","[52.0210558, 52.1811292, 6.8669448, 7.0672986]",162877,7.004876,198101598,"[""Ahaus, Kreis Borken, Regierungsbezirk M\u00fcnster, Nordrhein-Westfalen, 48683, Deutschland"", ""Ahaus""]",52.0761541,"""""",39185,""""""
"""""","""""","[51.5824705, 51.7054651, 12.1785665, 12.3942537]",1329611,12.3076334,198979017,"[""Bitterfeld-Wolfen, Anhalt-Bitterfeld, Sachsen-Anhalt, Deutschland"", ""Bitterfeld-Wolfen""]",51.6425032,"""""",39103,""""""
"""""",7596.1,"[53.2432085, 53.3793305, 9.7512602, 9.930916]",111406,9.8666653,198093060,"[""Buchholz in der Nordheide, Harburg, Niedersachsen, 21244, Deutschland"", ""Buchholz in der Nordheide""]",53.3333021,2624.0,39042,650.0
"""""","""""","[50.8029221, 50.8556717, 6.0867835, 6.2099676]",157994,6.1341108,197615887,"[""W\u00fcrselen, St\u00e4dteregion Aachen, Regierungsbezirk K\u00f6ln, Nordrhein-Westfalen, 52146, Deutschland"", ""W\u00fcrselen""]",50.8178682,"""""",38934,""""""
"""""","""""","[50.1249607, 50.1851043, 8.7800008, 8.8824771]",535888,8.8371444,198331698,"[""Maintal, Main-Kinzig-Kreis, Regierungsbezirk Darmstadt, Hessen, 63477, Deutschland"", ""Maintal""]",50.143872,"""""",38930,""""""
"""""","""""","[51.2172562, 51.2949225, 6.9268418, 7.0409453]",66521,6.9777778,197698653,"[""Mettmann, Kreis Mettmann, Regierungsbezirk D\u00fcsseldorf, Nordrhein-Westfalen, 40822, Deutschland"", ""Mettmann""]",51.2527778,"""""",38789,""""""
"""""","""""","[50.9027979, 51.0178094, 13.8820586, 14.0147439]",534516,13.9386643,198331327,"[""Pirna, S\u00e4chsische Schweiz-Osterzgebirge, Sachsen, 01796, Deutschland"", ""Pirna""]",50.9616923,"""""",38276,""""""
"""""",4500.0,"[52.6387254, 52.7187254, 13.5481114, 13.6281114]",3011735277,13.5881114,40243876,"[""Bernau bei Berlin, Barnim, Brandenburg, 16321, Deutschland"", ""Bernau bei Berlin""]",52.6787254,2613.8,38194,884.7
"""""","""""","[50.7672297, 50.8500948, 6.9789888, 7.1008634]",104040,7.0351942,197533095,"[""Niederkassel, Rhein-Sieg-Kreis, Regierungsbezirk K\u00f6ln, Nordrhein-Westfalen, 53859, Deutschland"", ""Niederkassel""]",50.8137102,"""""",38057,""""""
"""""","""""","[51.6954164, 51.8213724, 7.0472897, 7.3213176]",61945,7.187221,198027848,"[""Haltern am See, Kreis Recklinghausen, Regierungsbezirk M\u00fcnster, Nordrhein-Westfalen, 45721, Deutschland"", ""Haltern am See""]",51.7430516,"""""",37977,""""""
"""""","""""","[49.9527036, 50.0327036, 8.6271682, 8.7071682]",240103103,8.6671682,589177,"[""Langen, Offenbach, Regierungsbezirk Darmstadt, Hessen, 63225, Deutschland"", ""Langen (Hessen)""]",49.9927036,"""""",37527,""""""
"""""","""""","[50.0147043, 50.0641396, 8.590754, 8.761557]",659742,8.695738,198023693,"[""Neu-Isenburg, Landkreis Offenbach, Regierungsbezirk Darmstadt, Hessen, 63263, Deutschland"", ""Neu-Isenburg""]",50.0552494,"""""",37512,""""""
"""""","""""","[52.0325628, 52.1520083, 7.5233743, 7.7555895]",155710,7.6120326,197874625,"[""Greven, Kreis Steinfurt, Regierungsbezirk M\u00fcnster, Nordrhein-Westfalen, 48268, Deutschland"", ""Greven""]",52.0929254,"""""",37502,""""""
"""""","""""","[51.4720758, 51.5681317, 6.4484129, 6.5902025]",58619,6.547923,198016729,"[""Kamp-Lintfort, Kreis Wesel, Regierungsbezirk D\u00fcsseldorf, Nordrhein-Westfalen, 47475, Deutschland"", ""Kamp-Lintfort""]",51.5017981,"""""",37346,""""""
"""""","""""","[51.8517845, 52.0518722, 7.8570445, 8.1022066]",152291,7.9912335,198725946,"[""Warendorf, Kreis Warendorf, Regierungsbezirk M\u00fcnster, Nordrhein-Westfalen, 48231, Deutschland"", ""Warendorf""]",51.9532449,"""""",37242,""""""
"""""","""""","[48.1460919, 48.2035763, 11.1722731, 11.2851981]",933490,11.2382125,198016884,"[""F\u00fcrstenfeldbruck, Landkreis F\u00fcrstenfeldbruck, Obb, Bayern, 82256, Deutschland"", ""F\u00fcrstenfeldbruck""]",48.1813797,"""""",37202,""""""
"""""",3651.2,"[53.0060005, 53.1127081, 7.2910168, 7.5246585]",1080035,7.3928398,198183447,"[""Papenburg, Landkreis Emsland, Niedersachsen, 26871, Deutschland"", ""Papenburg""]",53.0822606,1396.0,37030,590.9
"""""","""""","[48.901489, 48.9934394, 9.3720761, 9.5091826]",165637,9.4311225,198775978,"[""Backnang, Vereinbarte Verwaltungsgemeinschaft der Stadt Backnang, Rems-Murr-Kreis, Regierungsbezirk Stuttgart, Baden-W\u00fcrttemberg, 71522, Deutschland"", ""Backnang""]",48.9466799,"""""",36893,""""""
"""""","""""","[52.2536551, 52.3893919, 13.5683735, 13.7570863]",55777,13.6244389,198014335,"[""K\u00f6nigs Wusterhausen, Dahme-Spreewald, Brandenburg, Deutschland"", ""K\u00f6nigs Wusterhausen""]",52.2994511,"""""",36706,""""""
"""""","""""","[51.7016877, 51.8191029, 7.9528917, 8.1375625]",152281,8.041135,198770807,"[""Beckum, Kreis Warendorf, Regierungsbezirk M\u00fcnster, Nordrhein-Westfalen, 59269, Deutschland"", ""Beckum""]",51.7555148,"""""",36689,""""""
"""""","""""","[48.2961042, 48.3425688, 11.8875223, 11.9421162]",3884045,11.9076579,198957632,"[""Erding, Landkreis Erding, Obb, Bayern, 85435, Deutschland"", ""Erding""]",48.3064441,"""""",36382,""""""
"""""","""""","[51.8462349, 51.9879097, 7.0557333, 7.2611726]",157769,7.1691108,198773576,"[""Coesfeld, Kreis Coesfeld, Regierungsbezirk M\u00fcnster, Nordrhein-Westfalen, 48653, Deutschland"", ""Coesfeld""]",51.9458943,"""""",36302,""""""
"""""","""""","[51.563028, 51.6367526, 6.5869894, 6.7219563]",58640,6.65540674557897,198023116,"[""Voerde (Niederrhein), Kreis Wesel, Regierungsbezirk D\u00fcsseldorf, Nordrhein-Westfalen, 46562, Deutschland"", ""Voerde (Niederrhein)""]",51.5996307,"""""",36268,""""""
"""""","""""","[52.1289372, 52.2304122, 7.4324319, 7.6347345]",155714,7.5301756,197651598,"[""Emsdetten, Kreis Steinfurt, Regierungsbezirk M\u00fcnster, Nordrhein-Westfalen, 48282, Deutschland"", ""Emsdetten""]",52.174687,"""""",36151,""""""
"""""","""""","[50.8048556, 50.8441237, 6.9555421, 7.0128517]",3314803,6.98355241578077,198754454,"[""Wesseling, Rhein-Erft-Kreis, Regierungsbezirk K\u00f6ln, Nordrhein-Westfalen, 50389, Deutschland"", ""Wesseling""]",50.824555,"""""",35955,""""""
"""""",4106.1,"[49.2367683, 49.3098952, 7.0620746, 7.1935699]",1184823,7.1158276,198936425,"[""Sankt Ingbert, Saarpfalz-Kreis, Saarland, 66386, Deutschland"", ""St. Ingbert""]",49.2788369,1368.7,35951,618.8
"""""","""""","[48.4862511, 48.641053, 7.7919616, 7.9560915]",452979,7.8135502,198313068,"[""Kehl, Ortenaukreis, Regierungsbezirk Freiburg, Baden-W\u00fcrttemberg, 77694, Deutschland"", ""Kehl""]",48.5722043,"""""",35695,""""""
"""""",3163.3,"[52.2430646, 52.2431646, 8.9199753, 8.9200753]",3450601124,8.9200253,46256264,"[""Porta Westfalica, Weserradweg, Hausberge, Porta Westfalica, Kreis Minden-L\u00fcbbecke, Regierungsbezirk Detmold, Nordrhein-Westfalen, 32457, Deutschland"", ""Porta Westfalica""]",52.2431146,1277.5,35660,500.0
"""""","""""","[47.9262364, 48.0322457, 8.6920779, 8.9087753]",1231962,8.8186606,198082629,"[""Tuttlingen, Verwaltungsgemeinschaft Tuttlingen, Landkreis Tuttlingen, Regierungsbezirk Freiburg, Baden-W\u00fcrttemberg, 78532, Deutschland"", ""Tuttlingen""]",47.9844315,"""""",35456,""""""
"""""","""""","[49.1743099, 49.2946837, 8.7638466, 9.0104596]",453372,8.87722,198328688,"[""Sinsheim, Verwaltungsgemeinschaft Sinsheim, Rhein-Neckar-Kreis, Regierungsbezirk Karlsruhe, Baden-W\u00fcrttemberg, 74889, Deutschland"", ""Sinsheim""]",49.2553,"""""",35439,""""""
"""""",2888.0,"[52.622534, 52.774288, 7.1351416, 7.4432698]",1075125,7.2909824,198359743,"[""Meppen, Landkreis Emsland, Niedersachsen, 49716, Deutschland"", ""Meppen""]",52.6947452,1372.5,35267,592.8
"""""",4076.7,"[50.5686518, 50.6486518, 10.6526437, 10.7326437]",21453859,10.6926437,116273,"[""Suhl, Th\u00fcringen, 98527, Deutschland, Europe"", ""Suhl "", ""Suhl""]",50.6086518,1412.7,35166,502.5
"""""","""""","[51.9211187, 52.0315652, 8.7089199, 8.8773515]",142650,8.7919583,197576710,"[""Lage, Kreis Lippe, Regierungsbezirk Detmold, Nordrhein-Westfalen, 32791, Deutschland"", ""Lage""]",51.9914084,"""""",35166,""""""
"""""","""""","[50.3536523, 50.4456762, 7.9833431, 8.1570102]",324307,8.0636197,198410957,"[""Limburg, Landkreis Limburg-Weilburg, Regierungsbezirk Gie\u00dfen, Hessen, Deutschland"", ""Limburg a.d. Lahn""]",50.3876305,"""""",34989,""""""
"""""","""""","[51.0733769, 51.1133769, 6.0805432, 6.1205432]",130050567,6.1005432,327473,"[""Kempen, Kreis Heinsberg, Regierungsbezirk K\u00f6ln, Nordrhein-Westfalen, 52525, Deutschland"", ""Kempen""]",51.0933769,"""""",34711,""""""
"""""","""""","[51.0645591, 51.161058, 7.1385522, 7.298924]",148789,7.2156901,198342498,"[""Wermelskirchen, Rheinisch-Bergischer Kreis, Regierungsbezirk K\u00f6ln, Nordrhein-Westfalen, 42929, Deutschland"", ""Wermelskirchen""]",51.1406481,"""""",34705,""""""
"""""",3994.7,"[53.2867397, 53.416136, 10.0911121, 10.3271242]",252882,10.2059206,198229985,"[""Winsen (Luhe), Harburg, Niedersachsen, 21423, Deutschland"", ""Winsen (Luhe)"", ""Winsen ""]",53.3636474,2288.5,34635,580.0
"""""","""""","[52.7958853, 52.9232308, 7.9642823, 8.1032214]",1109686,8.0438783,198050470,"[""Cloppenburg, Landkreis Cloppenburg, Niedersachsen, 49661, Deutschland"", ""Cloppenburg""]",52.8461339,"""""",34581,""""""
"""""","""""","[51.6136262, 51.7206557, 7.2400123, 7.4213201]",63509,7.3393014,197704619,"[""Datteln, Kreis Recklinghausen, Regierungsbezirk M\u00fcnster, Nordrhein-Westfalen, 45711, Deutschland"", ""Datteln""]",51.6512192,"""""",34563,""""""
"""""",3673.0,"[49.26028, 49.36206, 6.6751543, 6.815681]",1184570,6.749846,198244926,"[""Saarlouis, Landkreis Saarlouis, Saarland, 66740, Deutschland"", ""Saarlouis""]",49.3164661,1700.0,34532,641.9
"""""","""""","[49.9436488, 50.0267114, 8.5038979, 8.6299947]",444545,8.5622468,198883753,"[""M\u00f6rfelden-Walldorf, Kreis Gro\u00df-Gerau, Regierungsbezirk Darmstadt, Hessen, 64546, Deutschland"", ""M\u00f6rfelden-Walldorf""]",49.9923836,"""""",34315,""""""
"""""",4494.9,"[49.208655, 49.288655, 7.3241981, 7.4041981]",25553522,7.3641981,124858,"[""Zweibr\u00fccken, Rheinland-Pfalz, 66482, Deutschland"", ""Zweibr\u00fccken "", ""Zweibr\u00fccken""]",49.248655,1498.3,34270,534.6
"""""","""""","[53.1927625, 53.2727625, 7.4177265, 7.4977265]",240097893,7.4577265,588132,"[""Leer (Ostfriesland), Niedersachsen, 26789, Deutschland"", ""Leer (Ostfriesland)""]",53.2327625,"""""",34226,""""""
"""""","""""","[51.2903029, 51.3908853, 11.8983456, 12.0394029]",2406260,11.996148,198645913,"[""Merseburg, Saalekreis, Sachsen-Anhalt, 06217, Deutschland"", ""Merseburg""]",51.3564413,"""""",34197,""""""
"""""","""""","[49.0791167, 49.1860658, 9.9437754, 10.167651]",390790,10.0720195,198273722,"[""Crailsheim, Verwaltungsverband Crailsheim, Landkreis Schw\u00e4bisch Hall, Regierungsbezirk Stuttgart, Baden-W\u00fcrttemberg, 74564, Deutschland"", ""Crailsheim""]",49.1365626,"""""",34130,""""""
"""""",6741.9,"[48.2136696, 48.3265796, 8.7679069, 8.9472737]",2779376,8.8557862,198421230,"[""Balingen, Gemeindeverwaltungsverband Balingen, Zollernalbkreis, Regierungsbezirk T\u00fcbingen, Baden-W\u00fcrttemberg, 72336, Deutschland"", ""Balingen""]",48.2737512,2247.3,34062,694.4
"""""","""""","[49.9824837, 50.0393132, 8.7476525, 8.8266504]",416276,8.7828814,198307162,"[""Dietzenbach, Landkreis Offenbach, Regierungsbezirk Darmstadt, Hessen, 63128, Deutschland"", ""Dietzenbach""]",50.0135141,"""""",34055,""""""
"""""","""""","[52.3449618, 52.4227037, 9.4870145, 9.6654988]",382498,9.594287,197838859,"[""Seelze, Region Hannover, Niedersachsen, Deutschland"", ""Seelze""]",52.3964639,"""""",34036,""""""
"""""","""""","[51.3122282, 51.4174814, 7.7202239, 7.8534217]",2063637,7.7661798,198572121,"[""Hemer, M\u00e4rkischer Kreis, Regierungsbezirk Arnsberg, Nordrhein-Westfalen, 58675, Deutschland"", ""Hemer""]",51.3854116,"""""",34016,""""""
"""""","""""","[49.5191807, 49.5938416, 8.4950739, 8.6203969]",537051,8.5788029,198512882,"[""Viernheim, Kreis Bergstra\u00dfe, Regierungsbezirk Darmstadt, Hessen, 68519, Deutschland"", ""Viernheim""]",49.5401174,"""""",33989,""""""
"""""",3300.0,"[52.260527, 52.4006094, 9.3990321, 9.5683804]",2012699,9.4623741,199085113,"[""Barsinghausen, Region Hannover, Niedersachsen, 30890, Deutschland"", ""Barsinghausen""]",52.30223,1944.7,33989,775.7
"""""",6741.6,"[51.0885119, 51.1428608, 13.5853138, 13.7011022]",36820,13.6767995,198078797,"[""Radebeul, Mei\u00dfen, Sachsen, 01445, Deutschland"", ""Radebeul""]",51.0999765,3095.2,33954,568.6
"""""","""""","[52.0811251, 52.1945632, 7.2609328, 7.4556055]",155787,7.3903454,198108766,"[""Steinfurt, Kreis Steinfurt, Regierungsbezirk M\u00fcnster, Nordrhein-Westfalen, 48565, Deutschland"", ""Steinfurt""]",52.1294289,"""""",33915,""""""
"""""",4024.2,"[51.4671314, 51.5765723, 6.2006167, 6.4205949]",167992,6.3228189,197666215,"[""Geldern, Kreis Kleve, Regierungsbezirk D\u00fcsseldorf, Nordrhein-Westfalen, 47608, Deutschland"", ""Geldern""]",51.5169736,1775.3,33819,640.0
"""""","""""","[48.8475184, 48.8843269, 9.1523363, 9.224126]",405293,9.1873875,198026647,"[""Kornwestheim, Landkreis Ludwigsburg, Regierungsbezirk Stuttgart, Baden-W\u00fcrttemberg, 70806, Deutschland"", ""Kornwestheim""]",48.8611498,"""""",33766,""""""
"""""","""""","[50.162271, 50.2231886, 8.7019996, 8.7928395]",450123,8.7410776,198312350,"[""Bad Vilbel, Wetteraukreis, Regierungsbezirk Darmstadt, Hessen, 61118, Deutschland"", ""Bad Vilbel""]",50.1804837,"""""",33745,""""""
"""""",4800.0,"[52.8791557, 53.0413613, 10.4662676, 10.6970508]",1246442,10.558615,198417975,"[""Uelzen, Niedersachsen, 29525, Deutschland"", ""Uelzen"", ""Uelzen ""]",52.966838,1600.0,33673,510.3
"""""","""""","[51.6138012, 51.7480287, 6.0260539, 6.2293301]",167969,6.1593045,198354340,"[""Goch, Kreis Kleve, Regierungsbezirk D\u00fcsseldorf, Nordrhein-Westfalen, 47574, Deutschland"", ""Goch""]",51.6755765,"""""",33618,""""""
"""""",7760.8,"[48.7868595, 48.9086147, 12.873559, 13.0741545]",959809,12.96205,198540211,"[""Deggendorf, Landkreis Deggendorf, NB, Bayern, 94469, Deutschland"", ""Deggendorf""]",48.8333535,2684.6,33373,968.8
"""""",7236.8,"[53.5575882, 53.6187534, 9.6333439, 9.7592222]",3370039,9.7038772,198755508,"[""Wedel, Pinneberg, Schleswig-Holstein, 22880, Deutschland"", ""Wedel""]",53.5810226,3958.3,33347,605.3
"""""",6607.3,"[53.6333794, 53.7051402, 10.1699771, 10.3156737]",453746,10.2358999,198005445,"[""Ahrensburg, Stormarn, Schleswig-Holstein, 22926, Deutschland"", ""Ahrensburg""]",53.6736529,3481.5,33305,1020.6
"""""",5877.6,"[51.1694255, 51.2494255, 10.4189044, 10.4989044]",240027949,10.4589044,571524,"[""M\u00fchlhausen/Th\u00fcringen, Unstrut-Hainich-Kreis, Th\u00fcringen, 99974, Deutschland, Europe"", ""M\u00fchlhausen /Th\u00fcringen"", ""M\u00fchlhausen/Th\u00fcringen""]",51.2094255,1959.2,33127,500.0
"""""","""""","[51.3823547, 51.4660263, 14.0655603, 14.3704233]",409630,14.250083,197873708,"[""Hoyerswerda - Wojerecy, Bautzen, Sachsen, 02977, Deutschland"", ""Hoyerswerda""]",51.4333103,"""""",33116,""""""
"""""","""""","[51.1397112, 51.2311943, 6.4800602, 6.6268082]",168487,6.5143539,198354671,"[""Korschenbroich, Rhein-Kreis Neuss, Regierungsbezirk D\u00fcsseldorf, Nordrhein-Westfalen, 41352, Deutschland"", ""Korschenbroich""]",51.1902651,"""""",33063,""""""
"""""",2807.5,"[51.7173193, 51.8477697, 11.647061, 11.9044149]",124297,11.7391606,197775445,"[""Bernburg, Salzlandkreis, Sachsen-Anhalt, 06406, Deutschland"", ""Bernburg "", ""Bernburg (Saale)""]",51.7930788,1843.4,32876,522.2
"""""","""""","[47.5422251, 47.6253256, 7.7067254, 7.8410472]",2787853,7.7861959,198535137,"[""Rheinfelden (Baden), Verwaltungsgemeinschaft Rheinfelden (Baden), Landkreis L\u00f6rrach, Regierungsbezirk Freiburg, Baden-W\u00fcrttemberg, 79618, Deutschland"", ""Rheinfelden (Baden)""]",47.5605924,"""""",32856,""""""
"""""","""""","[51.7521811, 51.8871749, 10.5738521, 10.9002582]",1352965,10.7862526,198244667,"[""Wernigerode, Landkreis Harz, Sachsen-Anhalt, Deutschland, Europe"", ""Wernigerode""]",51.8344172,"""""",32837,""""""
"""""","""""","[48.0472189, 48.1302278, 9.671518, 9.9062784]",2801346,9.7899938,198609137,"[""Biberach an der Ri\u00df, Verwaltungsgemeinschaft Biberach an der Ri\u00df, Landkreis Biberach, Regierungsbezirk T\u00fcbingen, Baden-W\u00fcrttemberg, 88400, Deutschland"", ""Biberach an der Ri\u00df""]",48.0984413,"""""",32801,""""""
"""""","""""","[51.0727766, 51.2016644, 11.6476118, 11.8732095]",2403974,11.7518486428345,198386422,"[""Naumburg (Saale), Burgenlandkreis, Sachsen-Anhalt, Deutschland"", ""Naumburg (Saale)""]",51.1367325,"""""",32755,""""""
"""""","""""","[49.5729433, 49.6787661, 8.3646389, 8.5941621]",537050,8.4675044,198332038,"[""Lampertheim, Kreis Bergstra\u00dfe, Regierungsbezirk Darmstadt, Hessen, 68623, Deutschland"", ""Lampertheim""]",49.5944428,"""""",32609,""""""
"""""","""""","[50.8784956, 50.9785395, 6.2644865, 6.4548901]",158408,6.3611015,197643189,"[""J\u00fclich, Kreis D\u00fcren, Regierungsbezirk K\u00f6ln, Nordrhein-Westfalen, 52428, Deutschland"", ""J\u00fclich""]",50.9220931,"""""",32505,""""""
"""""","""""","[50.9221977, 51.0346991, 12.3721597, 12.4956935]",1263721,12.4340988,198596327,"[""Altenburg, Altenburger Land, Th\u00fcringen, Deutschland"", ""Altenburg""]",50.9852411,"""""",32374,""""""
"""""","""""","[52.6868118, 52.8005782, 8.1946843, 8.3839665]",1336408,8.2873162,198436906,"[""Vechta, Landkreis Vechta, Niedersachsen, 49377, Deutschland"", ""Vechta""]",52.7310691,"""""",32201,""""""
"""""",5625.0,"[49.6738471, 49.7508956, 10.9995766, 11.1266282]",1080467,11.059642,198917446,"[""Forchheim, Landkreis Forchheim, Oberfranken, Bayern, 91301, Deutschland"", ""Forchheim "", ""Forchheim""]",49.7187128,3076.2,32125,1330.3
"""""","""""","[50.3420463, 50.4117868, 8.7096011, 8.7962687]",167408,8.7473608,198128382,"[""Bad Nauheim, Wetteraukreis, Regierungsbezirk Darmstadt, Hessen, 61231, Deutschland"", ""Bad Nauheim""]",50.3681107,"""""",32102,""""""
"""""","""""","[52.322678, 52.4268707, 13.9378317, 14.1495065]",1384842,14.064985,198115601,"[""F\u00fcrstenwalde/Spree, Oder-Spree, Brandenburg, Deutschland"", ""F\u00fcrstenwalde/Spree""]",52.3580209,"""""",32098,""""""
"""""","""""","[51.7041967, 51.8437031, 8.402814, 8.681012]",148073,8.5594953,198102167,"[""Delbr\u00fcck, Kreis Paderborn, Regierungsbezirk Detmold, Nordrhein-Westfalen, 33129, Deutschland"", ""Delbr\u00fcck""]",51.7649178,"""""",31943,""""""
"""""",3764.5,"[53.9014083, 53.9633653, 9.4697065, 9.5789244]",152790,9.5155854,198132605,"[""Itzehoe, Steinburg, Schleswig-Holstein, 25524, Deutschland"", ""Itzehoe""]",53.9250316,1596.2,31848,509.1
"""""","""""","[52.9800064, 53.0566266, 8.9158254, 9.1445973]",1182036,9.0425504,198244433,"[""Achim, Landkreis Verden, Niedersachsen, 28832, Deutschland"", ""Achim""]",53.0068811,"""""",31834,""""""
"""""","""""","[52.1676938, 52.2402312, 7.9895518, 8.1518117]",1819454,8.05,198557819,"[""GMH\u00fctte, Landkreis Osnabr\u00fcck, Niedersachsen, 49124, Deutschland"", ""Georgsmarienh\u00fctte""]",52.2,"""""",31624,""""""
"""""","""""","[52.5896403, 52.6887018, 9.1629294, 9.3095001]",1183257,9.2181918,198208742,"[""Nienburg, Landkreis Nienburg/Weser, Niedersachsen, 31582, Deutschland"", ""Nienburg (Weser)""]",52.6410849,"""""",31602,""""""
"""""","""""","[48.5602164, 48.6392506, 8.7898756, 8.9819058]",722073,8.8674715,198327038,"[""Herrenberg, Vereinbarte Verwaltungsgemeinschaft der Stadt Herrenberg, Landkreis B\u00f6blingen, Regierungsbezirk Stuttgart, Baden-W\u00fcrttemberg, 71083, Deutschland"", ""Herrenberg""]",48.595557,"""""",31499,""""""
"""""","""""","[51.6241263, 51.7039088, 7.1902964, 7.2973639]",63502,7.2605914,197464514,"[""Oer-Erkenschwick, Kreis Recklinghausen, Regierungsbezirk M\u00fcnster, Nordrhein-Westfalen, 45739, Deutschland"", ""Oer-Erkenschwick""]",51.6398512,"""""",31378,""""""
"""""","""""","[51.5035306, 51.6246904, 6.5335115, 6.699589]",58643,6.6014097,198283811,"[""Rheinberg, Kreis Wesel, Regierungsbezirk D\u00fcsseldorf, Nordrhein-Westfalen, 47495, Deutschland"", ""Rheinberg""]",51.5458979,"""""",31195,""""""
"""""","""""","[47.7363606, 47.7364606, 8.9783653, 8.9784653]",265214605,8.9784153,759131,"[""Hegau-Bodensee-Klinikum Radolfzell, 12, Hausherrenstra\u00dfe, Mettnau, Hirschbrunnhof, Radolfzell, Landkreis Konstanz, Regierungsbezirk Freiburg, Baden-W\u00fcrttemberg, 78315, Deutschland"", ""Radolfzell am Bodensee""]",47.7364106,"""""",31064,""""""
"""""","""""","[51.9749351, 52.0933136, 11.659643, 11.8618316]",65420,11.770594646724,197465955,"[""Sch\u00f6nebeck (Elbe), Salzlandkreis, Sachsen-Anhalt, Deutschland"", ""Sch\u00f6nebeck (Elbe)""]",52.02417035,"""""",31038,""""""
"""""","""""","[50.9242212, 51.0424884, 7.9198791, 8.0710864]",163254,7.9896202,198183259,"[""Kreuztal, Kreis Siegen-Wittgenstein, Regierungsbezirk Arnsberg, Nordrhein-Westfalen, 57223, Deutschland"", ""Kreuztal""]",50.9598627,"""""",31017,""""""
"""""","""""","[52.3591395, 52.481047, 7.8421762, 8.1587888]",1818486,7.979647,198223303,"[""Bramsche, Landkreis Osnabr\u00fcck, Niedersachsen, 49565, Deutschland"", ""Bramsche""]",52.4076948,"""""",30992,""""""
"""""","""""","[51.7308974, 51.9138654, 9.7585728, 10.0413467]",156752,9.8678465,198135638,"[""Einbeck, Landkreis Northeim, Niedersachsen, Deutschland, Europe"", ""Einbeck""]",51.8185067,"""""",30925,""""""
"""""","""""","[51.3039971, 51.3664949, 7.2978206, 7.3952971]",1956782,7.3404792,198415424,"[""Gevelsberg, Ennepe-Ruhr-Kreis, Regierungsbezirk Arnsberg, Nordrhein-Westfalen, 58285, Deutschland"", ""Gevelsberg""]",51.3207417,"""""",30910,""""""
"""""","""""","[52.7919212, 53.0996851, 12.6592389, 12.9863611]",1302386,12.8092919,198430141,"[""Neuruppin, Ostprignitz-Ruppin, Brandenburg, Deutschland"", ""Neuruppin""]",52.9243859,"""""",30889,""""""
"""""","""""","[53.5196261, 53.7372646, 8.509083, 8.9956248]",4447298,8.77189954603205,198817745,"[""Geestland, Landkreis Cuxhaven, Niedersachsen, Deutschland"", ""Geestland""]",53.6291019,"""""",30873,""""""
"""""","""""","[51.8054515, 51.9052449, 6.103448, 6.3893873]",167945,6.2428283,198108056,"[""Emmerich, Kreis Kleve, Regierungsbezirk D\u00fcsseldorf, Nordrhein-Westfalen, 46446, Deutschland"", ""Emmerich am Rhein""]",51.8322137,"""""",30845,""""""
"""""","""""","[51.5087631, 51.595809, 7.8270933, 7.9985595]",153508,7.9155558,197632133,"[""Werl, Kreis Soest, Regierungsbezirk Arnsberg, Nordrhein-Westfalen, 59457, Deutschland"", ""Werl""]",51.5533457,"""""",30782,""""""
"""""","""""","[51.1719597, 51.2441147, 6.9598031, 7.0517532]",66527,7.0085328,198682599,"[""Haan, Kreis Mettmann, Regierungsbezirk D\u00fcsseldorf, Nordrhein-Westfalen, 42781, Deutschland"", ""Haan""]",51.1954956,"""""",30483,""""""
"""""","""""","[52.4079312, 52.54047, 9.9197157, 10.1026286]",59419,10.0078364,198726890,"[""Burgdorf, Region Hannover, Niedersachsen, 31303, Deutschland"", ""Burgdorf""]",52.4438008,"""""",30482,""""""
"""""",5714.3,"[50.8118291, 50.9285324, 7.1908103, 7.3065632]",173123,7.2127276,198733576,"[""Lohmar, Rhein-Sieg-Kreis, Regierungsbezirk K\u00f6ln, Nordrhein-Westfalen, 53797, Deutschland"", ""Lohmar "", ""Lohmar""]",50.8402243,2418.9,30451,792.0
"""""","""""","[53.3982436, 53.4607814, 10.3078205, 10.4695447]",325771,10.3682538,197995324,"[""Geesthacht, Herzogtum Lauenburg, Schleswig-Holstein, 21502, Deutschland"", ""Geesthacht""]",53.4397121,"""""",30407,""""""
"""""","""""","[51.2595889, 51.3386611, 13.2031217, 13.3880697]",549800,13.308828,198013949,"[""Riesa, Mei\u00dfen, Sachsen, Deutschland"", ""Riesa""]",51.3038241,"""""",30392,""""""
"""""",3694.4,"[53.1831181, 53.3268615, 8.6598246, 8.9503817]",188238,8.7948239,198163483,"[""Osterholz-Scharmbeck, Landkreis Osterholz, Niedersachsen, 27711, Deutschland"", ""Osterholz-Scharmbeck""]",53.2281763,1613.3,30329,500.0
"""""","""""","[47.5768697, 47.6343513, 7.5669554, 7.6496357]",2787969,7.6094052,198690822,"[""Weil am Rhein, Landkreis L\u00f6rrach, Regierungsbezirk Freiburg, Baden-W\u00fcrttemberg, 79576, Deutschland"", ""Weil am Rhein""]",47.6048182,"""""",30197,""""""
"""""","""""","[51.2506747, 51.4107402, 8.0965476, 8.3741186]",157423,8.2859257,197814508,"[""Meschede, Hochsauerlandkreis, Regierungsbezirk Arnsberg, Nordrhein-Westfalen, 59872, Deutschland"", ""Meschede""]",51.3436532,"""""",30086,""""""
"""""","""""","[52.9862379, 53.1754243, 14.1305375, 14.3816563]",1334108,14.2840858,198143838,"[""Schwedt/Oder, Uckermark, Brandenburg, Deutschland"", ""Schwedt/Oder""]",53.0586366,"""""",30075,""""""
"""""","""""","[51.2388271, 51.3323022, 7.2964768, 7.4327458]",1813352,7.3693335,198385828,"[""Ennepetal, Ennepe-Ruhr-Kreis, Regierungsbezirk Arnsberg, Nordrhein-Westfalen, 58256, Deutschland"", ""Ennepetal""]",51.2967192,"""""",29929,""""""
"""""","""""","[50.386007, 50.4766043, 7.2869285, 7.4506367]",541666,7.4023145,198011079,"[""Andernach, Landkreis Mayen-Koblenz, Rheinland-Pfalz, 56626, Deutschland"", ""Andernach""]",50.4391924,"""""",29860,""""""
"""""",4502.7,"[49.3974379, 49.5048155, 6.5042326, 6.7252024]",1187154,6.6374902,198404935,"[""Merzig, Landkreis Merzig-Wadern, Saarland, 66663, Deutschland"", ""Merzig""]",49.4427023,1500.9,29818,500.0
"""""","""""","[48.2977753, 48.4310061, 10.9337844, 11.0802818]",395731,10.9838928,198019872,"[""Friedberg (Bayern), Landkreis Aichach-Friedberg, Schwaben, Bayern, 86316, Deutschland"", ""Friedberg""]",48.3549199,"""""",29782,""""""
"""""","""""","[50.8134112, 50.9091501, 9.6108757, 9.8291736]",275075,9.7068481,198804130,"[""Bad Hersfeld, Landkreis Hersfeld-Rotenburg, Regierungsbezirk Kassel, Hessen, 36251, Deutschland, Europe"", ""Bad Hersfeld""]",50.8681341,"""""",29767,""""""
"""""","""""","[50.0936766, 50.2213859, 8.0980898, 8.2431337]",412432,8.157658,197930098,"[""Taunusstein, Rheingau-Taunus-Kreis, Regierungsbezirk Darmstadt, Hessen, 65232, Deutschland"", ""Taunusstein""]",50.1424579,"""""",29746,""""""
"""""","""""","[51.6271266, 51.728775, 7.540556, 7.7286528]",158456,7.6355052,197616528,"[""Werne, Kreis Unna, Regierungsbezirk Arnsberg, Nordrhein-Westfalen, 59368, Deutschland"", ""Werne""]",51.66268,"""""",29721,""""""
"""""","""""","[48.7693393, 48.8626318, 8.2849864, 8.4173633]",907232,8.320204,198007333,"[""Gaggenau, Landkreis Rastatt, Regierungsbezirk Karlsruhe, Baden-W\u00fcrttemberg, 76571, Deutschland"", ""Gaggenau""]",48.8030425,"""""",29615,""""""
"""""","""""","[48.6882469, 48.8030757, 11.1045706, 11.3045372]",943684,11.1795268,198377238,"[""Neuburg a.d.Donau, Landkreis Neuburg-Schrobenhausen, Obb, Bayern, Deutschland"", ""Neuburg a.d.Donau""]",48.7371951,"""""",29608,""""""
"""""","""""","[51.7174252, 51.8762047, 8.3331904, 8.5338081]",78758,8.4286614,198046138,"[""Rietberg, Kreis G\u00fctersloh, Regierungsbezirk Detmold, Nordrhein-Westfalen, 33397, Deutschland"", ""Rietberg""]",51.8074106,"""""",29432,""""""
"""""","""""","[53.750922, 53.837105, 12.119024, 12.294451]",1971863,12.1759661,198374172,"[""G\u00fcstrow, Rostock, Mecklenburg-Vorpommern, 18273, Deutschland"", ""G\u00fcstrow""]",53.7936523,"""""",29429,""""""
"""""","""""","[48.9885269, 49.0983467, 8.6350129, 8.7632662]",158352,8.7072589,197643007,"[""Bretten, Verwaltungsgemeinschaft Bretten, Landkreis Karlsruhe, Regierungsbezirk Karlsruhe, Baden-W\u00fcrttemberg, 75015, Deutschland"", ""Bretten""]",49.0364564,"""""",29336,""""""
"""""","""""","[48.8826443, 49.02149, 8.8999088, 9.0383741]",405820,8.9594655,198102581,"[""Vaihingen an der Enz, Landkreis Ludwigsburg, Regierungsbezirk Stuttgart, Baden-W\u00fcrttemberg, 71665, Deutschland"", ""Vaihingen an der Enz""]",48.9329116,"""""",29308,""""""
"""""","""""","[51.2775364, 51.3492985, 6.3871285, 6.5156879]",88735,6.45,198742294,"[""T\u00f6nisvorst, Kreis Viersen, Regierungsbezirk D\u00fcsseldorf, Nordrhein-Westfalen, 47918, Deutschland"", ""T\u00f6nisvorst""]",51.3167,"""""",29286,""""""
"""""","""""","[51.5869781, 51.662764, 7.3190736, 7.4652912]",63510,7.400959,197449933,"[""Waltrop, Kreis Recklinghausen, Regierungsbezirk M\u00fcnster, Nordrhein-Westfalen, 45731, Deutschland"", ""Waltrop""]",51.6237456,"""""",29252,""""""
"""""","""""","[51.7581019, 51.8997389, 8.0817955, 8.2598919]",151333,8.1453352,197808885,"[""Oelde, Kreis Warendorf, Regierungsbezirk M\u00fcnster, Nordrhein-Westfalen, 59302, Deutschland"", ""Oelde""]",51.8260823,"""""",29209,""""""
"""""","""""","[51.6718908, 51.8648797, 9.2490875, 9.4617417]",148593,9.3816877,198342136,"[""H\u00f6xter, Kreis H\u00f6xter, Regierungsbezirk Detmold, Nordrhein-Westfalen, 37671, Deutschland, Europe"", ""H\u00f6xter""]",51.7747369,"""""",29112,""""""
"""""","""""","[51.6418355, 51.7897952, 9.8894506, 10.1190576]",1397834,9.9972782,198119388,"[""Northeim, Landkreis Northeim, Niedersachsen, 37154, Deutschland, Europe"", ""Northeim""]",51.705401,"""""",29040,""""""
"""""","""""","[48.6273573, 48.7582943, 8.0329686, 8.2575535]",1188919,8.134423,198582147,"[""B\u00fchl, Vereinbarte Verwaltungsgemeinschaft B\u00fchl, Landkreis Rastatt, Regierungsbezirk Karlsruhe, Baden-W\u00fcrttemberg, 77815, Deutschland"", ""B\u00fchl""]",48.6945066,"""""",29000,""""""
"""""","""""","[50.2897875, 50.3645207, 8.636693, 8.8211508]",393689,8.7539306,198258851,"[""Friedberg (Hessen), Wetteraukreis, Regierungsbezirk Darmstadt, Hessen, 61169, Deutschland"", ""Friedberg (Hessen)""]",50.3352682,"""""",28962,""""""
"""""",3555.6,"[52.1280558, 52.2652028, 9.4640257, 9.7519884]",396873,9.5533403,198226136,"[""Springe, Region Hannover, Niedersachsen, 31832, Deutschland"", ""Springe"", ""Springe ""]",52.208794,1481.5,28918,520.6
"""""","""""","[47.9878848, 48.0794911, 10.807257, 10.9238811]",932270,10.8737728,198350272,"[""Landsberg am Lech, Landkreis Landsberg am Lech, Obb, Bayern, 86899, Deutschland"", ""Landsberg"", ""Landsberg am Lech""]",48.0514973,"""""",15032,""""""
"""""","""""","[50.1011295, 50.1879338, 8.3761191, 8.4865824]",414796,8.452008,197880297,"[""Kelkheim, Main-Taunus-Kreis, Regierungsbezirk Darmstadt, Hessen, 65779, Deutschland"", ""Kelkheim (Taunus)""]",50.1374646,"""""",28829,""""""
"""""","""""","[48.2551324, 48.2991862, 11.5138273, 11.5967226]",334267,11.5702716,198817736,"[""Unterschlei\u00dfheim, Landkreis M\u00fcnchen, Obb, Bayern, 85716, Deutschland"", ""Unterschlei\u00dfheim""]",48.2730686,"""""",28809,""""""
"""""","""""","[54.2549934, 54.3387644, 9.6081554, 9.712058]",548570,9.6645115,198337623,"[""Rendsburg, Rendsburg-Eckernf\u00f6rde, Schleswig-Holstein, 24768, Deutschland"", ""Rendsburg""]",54.3046701,"""""",28789,""""""
"""""","""""","[49.2479558, 49.3826214, 11.9897338, 12.2108622]",962181,12.1092708,198909871,"[""Schwandorf, Landkreis Schwandorf, OPf, Bayern, 92421, Deutschland"", ""Schwandorf""]",49.3261854,"""""",28730,""""""
"""""","""""","[50.8669327, 50.9430972, 7.133527, 7.2472519]",173102,7.1825445,197674972,"[""R\u00f6srath, Rheinisch-Bergischer Kreis, Regierungsbezirk K\u00f6ln, Nordrhein-Westfalen, 51503, Deutschland"", ""R\u00f6srath""]",50.8963758,"""""",28666,""""""
"""""","""""","[51.2495778, 51.3167965, 7.2557258, 7.3202988]",162833,7.2890314,198730561,"[""Schwelm, Ennepe-Ruhr-Kreis, Regierungsbezirk Arnsberg, Nordrhein-Westfalen, 58332, Deutschland"", ""Schwelm""]",51.2794879,"""""",28478,""""""
"""""","""""","[50.971208, 51.1301383, 12.0457826, 12.2778931]",2404586,12.1349991,198539637,"[""Zeitz, Burgenlandkreis, Sachsen-Anhalt, Deutschland"", ""Zeitz""]",51.0491637,"""""",28381,""""""
"""""",2377.8,"[49.6492332, 49.7543794, 7.2532209, 7.4457666]",444934,7.313321,198344579,"[""Idar-Oberstein, Landkreis Birkenfeld, Rheinland-Pfalz, 55743, Deutschland"", ""Idar-Oberstein""]",49.7106197,792.6,28357,500.0
"""""","""""","[48.8433607, 48.9025469, 9.362098, 9.4627203]",401699,9.3978478,198455311,"[""Winnenden, Gemeindeverwaltungsverband Winnenden, Rems-Murr-Kreis, Regierungsbezirk Stuttgart, Baden-W\u00fcrttemberg, 71364, Deutschland"", ""Winnenden""]",48.8754571,"""""",28351,""""""
"""""","""""","[50.071421, 50.133323, 8.8074319, 8.8868565]",659749,8.8293068,198836615,"[""M\u00fchlheim am Main, Landkreis Offenbach, Regierungsbezirk Darmstadt, Hessen, 63165, Deutschland"", ""M\u00fchlheim am Main""]",50.1219279,"""""",28318,""""""
"""""","""""","[51.0873661, 51.1112974, 6.9883721, 7.0308411]",10275537,7.0129371775131,72768601,"[""Leichlingen (Rheinland), Am Wallgraben, B\u00fcscherh\u00f6fen, Leichlingen, Rheinisch-Bergischer Kreis, Regierungsbezirk K\u00f6ln, Nordrhein-Westfalen, 42799, Deutschland"", ""Leichlingen (Rheinland)""]",51.0994249,"""""",28166,""""""
