lat,names,price_avg,pop,boundingbox,osm_id,price,place_id,price_min,lon,price_max
52.5170365,"[""Berlin, 10117, Deutschland"", ""Berlin "", ""Berlin""]",3796.7,3613495,"[52.3570365, 52.6770365, 13.2288599, 13.5488599]",240109189,"""""",595794,500.0,13.3888599,10000.0
53.550341,"[""Hamburg, 20095, Deutschland"", ""Hamburg "", ""Hamburg""]",3975.0,1830584,"[53.390341, 53.710341, 9.840654, 10.160654]",20833623,"""""",114035,551.0,10.000654,9988.0
48.1371079,"[""M\u00fcnchen, Obb, Bayern, Deutschland"", ""M\u00fcnchen"", ""M\u00fcnchen ""]",7066.6,1456039,"[48.0616244, 48.2481162, 11.360777, 11.7229083]",62428,"""""",197724330,500.0,11.5753822,10000.0
50.938361,"[""K\u00f6ln, Regierungsbezirk K\u00f6ln, Nordrhein-Westfalen, Deutschland"", ""K\u00f6ln "", ""K\u00f6ln""]",3469.0,1080394,"[50.8304494, 51.0849743, 6.7725303, 7.162028]",62578,"""""",197458053,517.2,6.959974,9677.4
50.1106444,"[""Frankfurt, Regierungsbezirk Darmstadt, Hessen, 60311, Deutschland"", ""Frankfurt "", ""Frankfurt am Main""]",4255.8,746878,"[49.9506444, 50.2706444, 8.5220917, 8.8420917]",27418664,"""""",142284,530.1,8.6820917,9956.9
48.7784485,"[""Stuttgart, Regierungsbezirk Stuttgart, Baden-W\u00fcrttemberg, 70173, Deutschland"", ""Stuttgart"", ""Stuttgart ""]",4411.8,632743,"[48.6184485, 48.9384485, 9.0200132, 9.3400132]",1674026139,"""""",17476218,882.4,9.1800132,9916.3
51.2254018,"[""D\u00fcsseldorf, Regierungsbezirk D\u00fcsseldorf, Nordrhein-Westfalen, 40213, Deutschland"", ""D\u00fcsseldorf "", ""D\u00fcsseldorf""]",4071.4,617280,"[51.0654018, 51.3854018, 6.6163137, 6.9363137]",240126753,"""""",605203,981.3,6.7763137,10000.0
51.5142273,"[""Dortmund, Regierungsbezirk Arnsberg, Nordrhein-Westfalen, 44135, Deutschland"", ""Dortmund"", ""Dortmund ""]",2135.1,586600,"[51.3542273, 51.6742273, 7.3052789, 7.6252789]",25293125,"""""",121619,590.4,7.4652789,5402.0
51.457087,"[""Essen, Regierungsbezirk D\u00fcsseldorf, Nordrhein-Westfalen, Deutschland"", ""Essen"", ""Essen ""]",2290.8,583393,"[51.3475714, 51.5342019, 6.8943442, 7.13765]",62713,"""""",197694959,558.1,7.011429,6872.4
51.3406321,"[""Leipzig, Sachsen, 04109, Deutschland"", ""Leipzig"", ""Leipzig ""]",2536.6,581980,"[51.1806321, 51.5006321, 12.2147329, 12.5347329]",21687149,"""""",240143048,500.0,12.3747329,7609.8
53.0758196,"[""Bremen, Deutschland"", ""Bremen "", ""Bremen""]",2114.3,568006,"[53.0110367, 53.5984187, 8.4815929, 8.9907318]",62559,"""""",197692829,548.8,8.8071646,6342.9
51.0493286,"[""Dresden, Sachsen, 01069, Deutschland"", ""Dresden"", ""Dresden ""]",2692.3,551072,"[50.8893286, 51.2093286, 13.5781437, 13.8981437]",20833613,"""""",240143667,566.7,13.7381437,7586.2
52.3744779,"[""Hannover, Region Hannover, Niedersachsen, Deutschland"", ""Hannover "", ""Hannover""]",2929.4,535061,"[52.3051373, 52.4543349, 9.60443, 9.9184259]",59418,"""""",197719425,875.0,9.7385532,8529.4
49.453872,"[""N\u00fcrnberg, Mittelfranken, Bayern, Deutschland"", ""N\u00fcrnberg "", ""N\u00fcrnberg""]",3590.0,515201,"[49.3314339, 49.5407534, 10.9887326, 11.2825957]",62780,"""""",197438213,742.9,11.077298,9782.6
51.434999,"[""Duisburg, Regierungsbezirk D\u00fcsseldorf, Nordrhein-Westfalen, 47051, Deutschland"", ""Duisburg"", ""Duisburg ""]",1808.7,498110,"[51.274999, 51.594999, 6.599562, 6.919562]",240055326,"""""",587207,516.7,6.759562,5426.1
51.4818111,"[""Bochum, Regierungsbezirk Arnsberg, Nordrhein-Westfalen, Deutschland"", ""Bochum"", ""Bochum ""]",2251.6,365529,"[51.4105043, 51.5313751, 7.1021062, 7.3493347]",62644,"""""",198028801,526.3,7.2196635,4020.3
51.264018,"[""Wuppertal, Regierungsbezirk D\u00fcsseldorf, Nordrhein-Westfalen, 42285, Deutschland"", ""Wuppertal "", ""Wuppertal""]",1849.5,353590,"[51.104018, 51.424018, 7.0180374, 7.3380374]",240090728,"""""",596062,511.0,7.1780374,5548.5
52.010877,"[""Bielefeld, Regierungsbezirk Detmold, Nordrhein-Westfalen, Deutschland"", ""Bielefeld "", ""Bielefeld""]",2139.4,332552,"[51.9148722, 52.1147629, 8.3778167, 8.6633481]",62646,"""""",198049964,543.5,8.540868,5625.0
50.735851,"[""Bonn, Regierungsbezirk K\u00f6ln, Nordrhein-Westfalen, 53111, Deutschland"", ""Bonn "", ""Bonn""]",2833.3,325490,"[50.575851, 50.895851, 6.94066, 7.26066]",26373169,"""""",129972,862.1,7.10066,7362.9
51.9501317,"[""M\u00fcnster, Regierungsbezirk M\u00fcnster, Nordrhein-Westfalen, Deutschland"", ""Munster"", ""M\u00fcnster "", ""M\u00fcnster""]",3214.3,14983,"[51.8401448, 52.0600251, 7.4737853, 7.7743634]",62591,"""""",198287788,600.0,7.61330165026119,9545.4
49.0068705,"[""Karlsruhe, Regierungsbezirk Karlsruhe, Baden-W\u00fcrttemberg, Deutschland"", ""Karlsruhe "", ""Karlsruhe""]",3571.3,311919,"[48.9404699, 49.0912838, 8.2773142, 8.5417299]",62518,"""""",198027610,1412.5,8.4034195,8900.5
49.489591,"[""Mannheim, Regierungsbezirk Karlsruhe, Baden-W\u00fcrttemberg, 68161, Deutschland"", ""Mannheim"", ""Mannheim ""]",2705.9,307997,"[49.329591, 49.649591, 8.307236, 8.627236]",240060919,"""""",580787,589.5,8.467236,7382.4
48.3668041,"[""Augsburg, Schwaben, Bayern, Deutschland"", ""Augsburg"", ""Augsburg ""]",3992.0,292851,"[48.2581444, 48.4586541, 10.7633615, 10.9593328]",62407,"""""",198028629,741.9,10.8986971,8400.0
50.0820384,"[""Wiesbaden, Regierungsbezirk Darmstadt, Hessen, 65183, Deutschland"", ""Wiesbaden"", ""Wiesbaden ""]",3835.4,278654,"[49.9220384, 50.2420384, 8.0816556, 8.4016556]",240028377,"""""",574888,937.5,8.2416556,9880.0
51.1946983,"[""M\u00f6nchengladbach, Regierungsbezirk D\u00fcsseldorf, Nordrhein-Westfalen, 41061, Deutschland"", ""M\u00f6nchengladbach "", ""M\u00f6nchengladbach""]",1880.0,262188,"[51.0346983, 51.3546983, 6.2753641, 6.5953641]",240062631,"""""",585387,518.5,6.4353641,5640.0
51.5110321,"[""Gelsenkirchen, Regierungsbezirk M\u00fcnster, Nordrhein-Westfalen, Deutschland"", ""Gelsenkirchen"", ""Gelsenkirchen ""]",1476.4,260305,"[51.4808012, 51.6315932, 6.9874995, 7.152327]",62522,"""""",197456683,502.2,7.0960124,3976.6
52.2646577,"[""Braunschweig, Niedersachsen, Deutschland"", ""Braunschweig"", ""Braunschweig ""]",2534.5,248023,"[52.1867942, 52.3573831, 10.4124522, 10.6449081]",62531,"""""",197692674,800.0,10.5236066,4602.6
54.3227085,"[""Kiel, Schleswig-Holstein, 24103, Deutschland"", ""Kiel "", ""Kiel""]",2412.2,247943,"[54.1627085, 54.4827085, 9.975555, 10.295555]",24487450,"""""",119344,533.3,10.135555,7236.6
50.8322608,"[""Chemnitz, Sachsen, 09111, Deutschland"", ""Chemnitz "", ""Chemnitz""]",1658.0,246855,"[50.6722608, 50.9922608, 12.7652977, 13.0852977]",20830918,"""""",120397,505.4,12.9252977,4974.0
50.776351,"[""Aachen, St\u00e4dteregion Aachen, Regierungsbezirk K\u00f6ln, Nordrhein-Westfalen, Deutschland"", ""Aachen "", ""Aachen""]",2510.6,246272,"[50.6621399, 50.8572449, 5.9748624, 6.2180747]",62564,"""""",197457664,834.5,6.083862,5132.7
51.4825041,"[""Halle (Saale), Sachsen-Anhalt, 06108, Deutschland"", ""Halle (Saale)""]","""""",239173,"[51.3225041, 51.6425041, 11.8105452, 12.1305452]",1667005776,"""""",17465807,"""""",11.9705452,""""""
52.1315889,"[""Magdeburg, Sachsen-Anhalt, 39104, Deutschland"", ""Magdeburg"", ""Magdeburg ""]",2050.0,238478,"[51.9715889, 52.2915889, 11.4799609, 11.7999609]",33997995,"""""",201537,505.6,11.6399609,5389.0
48.0021641,"[""Freiburg im Breisgau, Regierungsbezirk Freiburg, Baden-W\u00fcrttemberg, 79144, Deutschland"", ""Freiburg im Breisgau""]","""""",229636,"[47.3621641, 48.6421641, 7.1838644, 8.4638644]",21973469,"""""",118860,"""""",7.8238644,""""""
51.3331205,"[""Krefeld, Regierungsbezirk D\u00fcsseldorf, Nordrhein-Westfalen, 47798, Deutschland"", ""Krefeld "", ""Krefeld""]",2262.8,226699,"[51.1731205, 51.4931205, 6.4023343, 6.7223343]",240048753,"""""",577991,541.7,6.5623343,6788.4
53.866444,"[""L\u00fcbeck, Schleswig-Holstein, 23552, Deutschland"", ""L\u00fcbeck "", ""L\u00fcbeck""]",2280.6,216318,"[53.706444, 54.026444, 10.524738, 10.844738]",25327151,"""""",120877,841.8,10.684738,6841.8
50.0012314,"[""Mainz, Rheinland-Pfalz, 55116, Deutschland"", ""Mainz"", ""Mainz ""]",3497.5,215110,"[49.8412314, 50.1612314, 8.1162513, 8.4362513]",240116263,"""""",592158,871.0,8.2762513,9388.9
50.9777974,"[""Erfurt, Th\u00fcringen, 99084, Deutschland, Europe"", ""Erfurt "", ""Erfurt""]",2377.8,212988,"[50.8177974, 51.1377974, 10.8687364, 11.1887364]",240038130,"""""",584672,506.7,11.0287364,4857.7
51.51399325,"[""Oberhausen, Regierungsbezirk D\u00fcsseldorf, Nordrhein-Westfalen, Deutschland"", ""Oberhausen"", ""Oberhausen ""]",1845.0,211422,"[51.4486973, 51.5799378, 6.7772836, 6.9304578]",62734,"""""",198110355,566.5,6.84932276128192,3831.8
54.0924445,"[""Rostock, Mecklenburg-Vorpommern, 18057, Deutschland"", ""Rostock"", ""Rostock ""]",2818.4,208409,"[53.9324445, 54.2524445, 11.9686127, 12.2886127]",1684321651,"""""",17538915,864.4,12.1286127,6566.7
51.3076867,"[""Kassel, Regierungsbezirk Kassel, Hessen, Deutschland, Europe"", ""Kassel"", ""Kassel ""]",2268.7,200736,"[51.2604367, 51.3690107, 9.3500845, 9.5697643]",62598,"""""",197435167,508.9,9.4624705,6156.2
51.3582945,"[""Hagen, Regierungsbezirk Arnsberg, Nordrhein-Westfalen, 58095, Deutschland"", ""Hagen "", ""Hagen""]",1733.0,187730,"[51.1982945, 51.5182945, 7.313296, 7.633296]",240110547,"""""",596250,500.0,7.473296,4587.2
49.234362,"[""Saarbr\u00fccken, Regionalverband Saarbr\u00fccken, Saarland, Deutschland"", ""Saarbr\u00fccken"", ""Saarbr\u00fccken ""]",1593.3,180966,"[49.1721922, 49.3220676, 6.8276387, 7.1380203]",1187159,"""""",198361653,504.4,6.996379,4779.9
51.6616271,"[""Hamm, Regierungsbezirk Arnsberg, Nordrhein-Westfalen, Deutschland"", ""Hamm "", ""Hamm""]",1897.1,179185,"[51.5786497, 51.7445915, 7.6747699, 7.9974351]",62499,"""""",198732025,542.7,7.82168312484634,3374.4
52.4009309,"[""Potsdam, Brandenburg, 14467, Deutschland"", ""Potsdam"", ""Potsdam ""]",4032.3,175710,"[52.2409309, 52.5609309, 12.8991397, 13.2191397]",1695218178,"""""",17825094,700.0,13.0591397,9438.8
51.4272925,"[""M\u00fclheim, Regierungsbezirk D\u00fcsseldorf, Nordrhein-Westfalen, Deutschland"", ""M\u00fclheim an der Ruhr"", ""M\u00fclheim ""]",2633.6,171265,"[51.3507415, 51.47145, 6.8066678, 6.9595443]",62385,"""""",198020287,568.5,6.8829192,7900.8
49.487297,"[""Ludwigshafen am Rhein, Rheinland-Pfalz, Deutschland"", ""Ludwigshafen am Rhein""]","""""",168497,"[49.4266985, 49.5480579, 8.2982215, 8.4769401]",62347,"""""",197695253,"""""",8.39006577268274,""""""
53.1389753,"[""Oldenburg, Niedersachsen, 26122, Deutschland"", ""Oldenburg "", ""Oldenburg (Oldenburg)""]",2575.8,167081,"[52.9789753, 53.2989753, 8.0546017, 8.3746017]",277023297,"""""",834049,812.0,8.2146017,7095.2
52.266837,"[""Osnabr\u00fcck, Niedersachsen, 49074, Deutschland"", ""Osnabr\u00fcck"", ""Osnabr\u00fcck ""]",2112.7,164374,"[52.106837, 52.426837, 7.889741, 8.209741]",240056905,"""""",583836,873.5,8.049741,6338.1
51.0324743,"[""Leverkusen, Regierungsbezirk K\u00f6ln, Nordrhein-Westfalen, 51373, Deutschland"", ""Leverkusen"", ""Leverkusen ""]",2666.7,163577,"[50.8724743, 51.1924743, 6.8281194, 7.1481194]",1651889631,"""""",17346888,923.1,6.9881194,7617.6
49.4093582,"[""Heidelberg, Regierungsbezirk Karlsruhe, Baden-W\u00fcrttemberg, 69120, Deutschland"", ""Heidelberg "", ""Heidelberg""]",3407.1,160601,"[49.2493582, 49.5693582, 8.534724, 8.854724]",240058050,"""""",584046,841.8,8.694724,9729.7
51.1712468,"[""Solingen, Regierungsbezirk D\u00fcsseldorf, Nordrhein-Westfalen, 42651, Deutschland"", ""Solingen "", ""Solingen""]",2179.8,158803,"[51.0112468, 51.3312468, 6.9238996, 7.2438996]",240072888,"""""",580204,714.8,7.0838996,6133.3
49.872775,"[""Darmstadt, Regierungsbezirk Darmstadt, Hessen, 64283, Deutschland"", ""Darmstadt""]","""""",158254,"[49.712775, 50.032775, 8.491177, 8.811177]",240074718,"""""",592779,"""""",8.651177,""""""
51.5380394,"[""Herne, Regierungsbezirk Arnsberg, Nordrhein-Westfalen, 44623, Deutschland"", ""Herne"", ""Herne ""]",1797.8,156490,"[51.3780394, 51.6980394, 7.059985, 7.379985]",21315295,"""""",114135,509.4,7.219985,4905.7
51.1981778,"[""Neuss, Rhein-Kreis Neuss, Regierungsbezirk D\u00fcsseldorf, Nordrhein-Westfalen, Deutschland"", ""Neuss"", ""Neuss ""]",3329.9,153810,"[51.1167565, 51.2356105, 6.6148193, 6.798347]",163307,"""""",198350301,869.6,6.6916476,9989.7
49.0195333,"[""Rgbg, Regensburg, OPf, Bayern, 93047, Deutschland"", ""Regensburg "", ""Regensburg""]",3680.5,150894,"[48.8595333, 49.1795333, 11.9374869, 12.2574869]",240120926,"""""",603495,1151.1,12.0974869,8588.2
51.71895955,"[""Paderborn, Kreis Paderborn, Regierungsbezirk Detmold, Nordrhein-Westfalen, Deutschland"", ""Paderborn "", ""Paderborn""]",2290.2,149075,"[51.6793659, 51.7587989, 8.7104923, 8.8354886]",5610766,"""""",199025344,765.5,8.76486977817756,5216.8
48.7630165,"[""Ingolstadt, Obb, Bayern, 85057, Deutschland"", ""Ingolstadt"", ""Ingolstadt ""]",4063.1,135244,"[48.6030165, 48.9230165, 11.2650395, 11.5850395]",2110382406,"""""",21577311,941.2,11.4250395,8888.9
50.1055002,"[""Offenbach am Main, Regierungsbezirk Darmstadt, Hessen, 63065, Deutschland"", ""Offenbach am Main"", ""Offenbach ""]",3325.0,126658,"[49.9455002, 50.2655002, 8.6010698, 8.9210698]",240072040,"""""",597947,996.0,8.7610698,6584.4
49.79245,"[""W\u00fcrzburg, Unterfranken, Bayern, 97070, Deutschland"", ""W\u00fcrzburg "", ""W\u00fcrzburg""]",2948.2,126635,"[49.63245, 49.95245, 9.772966, 10.092966]",25738881,"""""",127502,851.2,9.932966,8844.6
49.477263,"[""F\u00fcrth, Mittelfranken, Bayern, 90762, Deutschland"", ""F\u00fcrth "", ""F\u00fcrth""]",3749.2,126526,"[49.317263, 49.637263, 10.829616, 11.149616]",1602111978,"""""",17208290,665.8,10.989616,8010.8
48.3973944,"[""Ulm, Regierungsbezirk T\u00fcbingen, Baden-W\u00fcrttemberg, Deutschland"", ""Ulm""]","""""",125596,"[48.3066627, 48.4685153, 9.8420502, 10.0428303]",62495,"""""",198678443,"""""",9.9932755,""""""
49.142291,"[""Heilbronn, Regierungsbezirk Stuttgart, Baden-W\u00fcrttemberg, 74072, Deutschland"", ""Heilbronn "", ""Heilbronn""]",2916.5,125113,"[48.982291, 49.302291, 9.058655, 9.378655]",26769661,"""""",139300,1178.9,9.218655,8280.2
48.8908846,"[""Pforzheim, Regierungsbezirk Karlsruhe, Baden-W\u00fcrttemberg, 75175, Deutschland"", ""Pforzheim "", ""Pforzheim""]",2533.3,124289,"[48.7308846, 49.0508846, 8.5429532, 8.8629532]",240046032,"""""",586618,800.0,8.7029532,6926.0
52.4205588,"[""Wolfsburg, Niedersachsen, 38440, Deutschland"", ""Wolfsburg "", ""Wolfsburg""]",2646.0,123914,"[52.2605588, 52.5805588, 10.6261682, 10.9461682]",31172722,"""""",164237,906.2,10.7861682,5514.7
51.5327604,"[""G\u00f6ttingen, Landkreis G\u00f6ttingen, Niedersachsen, Deutschland, Europe"", ""G\u00f6ttingen""]","""""",119529,"[51.4830052, 51.5908839, 9.8001329, 10.0536032]",191361,"""""",198140226,"""""",9.9352051,""""""
51.521581,"[""Bottrop, Regierungsbezirk M\u00fcnster, Nordrhein-Westfalen, 46236, Deutschland"", ""Bottrop "", ""Bottrop""]",1966.5,117364,"[51.361581, 51.681581, 6.769204, 7.089204]",240026265,"""""",571017,721.4,6.929204,5387.6
48.4919508,"[""Reutlingen, Landkreis Reutlingen, Regierungsbezirk T\u00fcbingen, Baden-W\u00fcrttemberg, Deutschland"", ""Reutlingen "", ""Reutlingen""]",3056.8,115762,"[48.4126792, 48.5786138, 9.1148655, 9.2555868]",2772661,"""""",199192216,785.7,9.2114144,7619.0
50.3533278,"[""Koblenz, Rheinland-Pfalz, 56068, Deutschland"", ""Koblenz "", ""Koblenz""]",2335.0,113844,"[50.1933278, 50.5133278, 7.4343951, 7.7543951]",240102654,"""""",593176,529.3,7.5943951,5970.0
51.6143815,"[""Recklinghausen, Kreis Recklinghausen, Regierungsbezirk M\u00fcnster, Nordrhein-Westfalen, Deutschland"", ""Recklinghausen "", ""Recklinghausen""]",1734.7,113360,"[51.5527602, 51.6514493, 7.1347922, 7.2962721]",56665,"""""",197686303,546.3,7.1978546,3973.7
53.5522264,"[""Bremerhaven, Bremen, Deutschland"", ""Bremerhaven"", ""Bremerhaven ""]",1319.1,113026,"[53.4711654, 53.6101863, 8.48301, 8.6593672]",62658,"""""",198028882,500.0,8.5865509,3957.3
50.9929303,"[""Bergisch Gladbach, Rheinisch-Bergischer Kreis, Regierungsbezirk K\u00f6ln, Nordrhein-Westfalen, Deutschland"", ""Bergisch Gladbach"", ""Bergisch Gladbach ""]",2986.8,111627,"[50.9199924, 51.0269392, 7.0617856, 7.2545737]",173103,"""""",197832447,557.7,7.1277379,8166.7
50.9281717,"[""Jena, Th\u00fcringen, 07743, Deutschland"", ""Jena "", ""Jena""]",2361.7,111099,"[50.7681717, 51.0881717, 11.4279359, 11.7479359]",240090160,"""""",596371,540.0,11.5879359,6413.0
49.5981187,"[""Erlangen, Mittelfranken, Bayern, 91052, Deutschland"", ""Erlangen "", ""Erlangen""]",3273.8,110998,"[49.4381187, 49.7581187, 10.843645, 11.163645]",17193023,"""""",110269,923.1,11.003645,9375.0
51.1798706,"[""Remscheid, Regierungsbezirk D\u00fcsseldorf, Nordrhein-Westfalen, 42853, Deutschland"", ""Remscheid"", ""Remscheid ""]",1830.8,110584,"[51.0198706, 51.3398706, 7.0343544, 7.3543544]",240063145,"""""",581309,500.0,7.1943544,5492.4
49.7596208,"[""Trier, Rheinland-Pfalz, 54290, Deutschland"", ""Trier "", ""Trier""]",2044.4,110013,"[49.5996208, 49.9196208, 6.4841878, 6.8041878]",31941291,"""""",194268,507.4,6.6441878,6000.0
52.1503721,"[""Salzgitter, Niedersachsen, 38226, Deutschland"", ""Salzgitter"", ""Salzgitter ""]",1500.0,104548,"[51.9903721, 52.3103721, 10.1993147, 10.5193147]",129992313,"""""",327355,513.9,10.3593147,3223.3
51.451283,"[""Moers, Kreis Wesel, Regierungsbezirk D\u00fcsseldorf, Nordrhein-Westfalen, Deutschland"", ""Moers "", ""Moers""]",2223.3,103949,"[51.3907947, 51.5237804, 6.5583684, 6.6787416]",58623,"""""",197689799,532.3,6.62843,6096.5
50.8749804,"[""Siegen, Kreis Siegen-Wittgenstein, Regierungsbezirk Arnsberg, Nordrhein-Westfalen, Deutschland"", ""Siegen "", ""Siegen""]",1468.5,102337,"[50.8114072, 50.9513102, 7.9215923, 8.1279162]",163256,"""""",197880988,602.2,8.0227233,4405.5
52.1521636,"[""Hildesheim, Landkreis Hildesheim, Niedersachsen, Deutschland, Europe"", ""Hildesheim"", ""Hildesheim ""]",1782.8,101744,"[52.0935785, 52.1938772, 9.8465506, 10.0428454]",1176503,"""""",198868979,800.0,9.9513046,4545.4
51.7567447,"[""Cottbus - Ch\u00f3\u015bebuz, Brandenburg, 03046, Deutschland"", ""Cottbus""]","""""",101036,"[51.5967447, 51.9167447, 14.1757307, 14.4957307]",1628927045,"""""",17405352,"""""",14.3357307,""""""
49.4432174,"[""Kaiserslautern, Rheinland-Pfalz, 67655, Deutschland"", ""Kaiserslautern"", ""Kaiserslautern ""]",1534.0,99684,"[49.2832174, 49.6032174, 7.6089951, 7.9289951]",240093234,"""""",596602,525.0,7.7689951,4602.0
51.9063997,"[""G\u00fctersloh, Kreis G\u00fctersloh, Regierungsbezirk Detmold, Nordrhein-Westfalen, Deutschland"", ""G\u00fctersloh"", ""G\u00fctersloh ""]",2383.9,99315,"[51.855934, 51.9770906, 8.2839977, 8.5059937]",138119,"""""",198094159,735.3,8.3782078,4316.6
51.4370171,"[""Witten, Ennepe-Ruhr-Kreis, Regierungsbezirk Arnsberg, Nordrhein-Westfalen, Deutschland"", ""Witten""]","""""",96565,"[51.3700726, 51.4843402, 7.2460717, 7.423475]",162826,"""""",197658877,"""""",7.335124,""""""
50.1335542,"[""Hanau, Main-Kinzig-Kreis, Regierungsbezirk Darmstadt, Hessen, Deutschland"", ""Hanau"", ""Hanau ""]",2493.9,96130,"[50.0753198, 50.1955019, 8.8619841, 9.0302592]",535895,"""""",198890388,711.4,8.9168179,6146.2
53.6288297,"[""Schwerin, Mecklenburg-Vorpommern, Deutschland"", ""Schwerin "", ""Schwerin""]",1925.4,95797,"[53.5443597, 53.6873387, 11.2960272, 11.505544]",62685,"""""",197694700,552.4,11.4148038,4739.1
50.8772301,"[""Gera, Th\u00fcringen, Deutschland"", ""Gera "", ""Gera""]",1251.1,94859,"[50.7986158, 50.9765857, 11.9981564, 12.1695244]",62671,"""""",197694625,521.7,12.0796208,3391.3
48.8956194,"[""Ludwigsburg, Landkreis Ludwigsburg, Regierungsbezirk Stuttgart, Baden-W\u00fcrttemberg, Deutschland"", ""Ludwigsburg""]","""""",93593,"[48.8734228, 48.932556, 9.1373656, 9.3124752]",405292,"""""",197919522,"""""",9.1895147,""""""
48.7427584,"[""Esslingen, Landkreis Esslingen, Regierungsbezirk Stuttgart, Baden-W\u00fcrttemberg, Deutschland"", ""Esslingen "", ""Esslingen am Neckar""]",3767.1,93004,"[48.7065634, 48.7757682, 9.2562418, 9.4165802]",2792882,"""""",198729583,1502.3,9.3071685,9834.7
51.3746778,"[""Iserlohn, M\u00e4rkischer Kreis, Regierungsbezirk Arnsberg, Nordrhein-Westfalen, Deutschland"", ""Iserlohn"", ""Iserlohn ""]",1514.8,92928,"[51.3017592, 51.4736517, 7.5841175, 7.7449936]",1800165,"""""",199052531,536.2,7.6999713,4544.4
50.8031684,"[""D\u00fcren, Kreis D\u00fcren, Regierungsbezirk K\u00f6ln, Nordrhein-Westfalen, Deutschland"", ""D\u00fcren "", ""D\u00fcren""]",1744.8,90502,"[50.7409797, 50.8576045, 6.3856331, 6.5384131]",163046,"""""",197880788,508.5,6.4820806,5128.2
50.7185043,"[""Zwickau, Sachsen, Deutschland"", ""Zwickau""]","""""",90192,"[50.6417164, 50.8127986, 12.4083479, 12.5659556]",397076,"""""",198277474,"""""",12.4939267,""""""
48.5236164,"[""T\u00fcbingen, Landkreis T\u00fcbingen, Regierungsbezirk T\u00fcbingen, Baden-W\u00fcrttemberg, Deutschland"", ""T\u00fcbingen""]","""""",89447,"[48.4505844, 48.5937129, 8.9645155, 9.1310745]",2778914,"""""",198421098,"""""",9.0535531,""""""
54.7833021,"[""Flensburg, Schleswig-Holstein, 24937, Deutschland"", ""Flensburg "", ""Flensburg""]",2140.3,88519,"[54.7433021, 54.8233021, 9.3933264, 9.4733264]",240033839,"""""",573749,689.7,9.4333264,6060.6
50.5862066,"[""Gie\u00dfen, Landkreis Gie\u00dfen, Regierungsbezirk Gie\u00dfen, Hessen, Deutschland"", ""Gie\u00dfen""]","""""",87343,"[50.5264042, 50.6352285, 8.5557586, 8.7640475]",418617,"""""",198853412,"""""",8.6742306,""""""
51.2973261,"[""Ratingen, Kreis Mettmann, Regierungsbezirk D\u00fcsseldorf, Nordrhein-Westfalen, Deutschland"", ""Ratingen "", ""Ratingen""]",3240.0,87226,"[51.2646033, 51.3717943, 6.8012365, 6.9830942]",56682,"""""",198043516,1650.1,6.8493503,8333.3
51.6142482,"[""L\u00fcnen, Kreis Unna, Regierungsbezirk Arnsberg, Nordrhein-Westfalen, Deutschland"", ""L\u00fcnen""]","""""",86465,"[51.5784957, 51.6526727, 7.4181329, 7.5923255]",158454,"""""",197876948,"""""",7.5228088,""""""
48.0632739,"[""Villingen-Schwenningen, Verwaltungsgemeinschaft Villingen-Schwenningen, Schwarzwald-Baar-Kreis, Regierungsbezirk Freiburg, Baden-W\u00fcrttemberg, Deutschland"", ""Villingen-Schwenningen"", ""Villingen-Schwenningen ""]",2094.0,84557,"[47.9809195, 48.1253665, 8.3081027, 8.6365388]",1242298,"""""",198416858,795.1,8.494588,6198.8
47.659216,"[""Konstanz, Verwaltungsgemeinschaft Konstanz, Konstanz, Regierungsbezirk Freiburg, Baden-W\u00fcrttemberg, Deutschland"", ""Konstanz""]","""""",84441,"[47.6539842, 47.7627374, 9.0853854, 9.2179906]",2784842,"""""",198436997,"""""",9.1750718,""""""
51.6485843,"[""Marl, Kreis Recklinghausen, Regierungsbezirk M\u00fcnster, Nordrhein-Westfalen, Deutschland"", ""Marl"", ""Marl ""]",1655.9,83695,"[51.6149455, 51.7203314, 7.022661, 7.2056326]",63460,"""""",197464385,548.0,7.0829054,3945.0
49.6352685,"[""Worms, Rheinland-Pfalz, 67547, Deutschland"", ""Worms "", ""Worms""]",1853.6,83081,"[49.5952685, 49.6752685, 8.3203088, 8.4003088]",240112249,"""""",601786,631.3,8.3603088,4352.6
51.8311104,"[""Dessau-Ro\u00dflau, Sachsen-Anhalt, 06842, Deutschland"", ""Dessau-Ro\u00dflau"", ""Dessau ""]",1762.8,82111,"[51.7911104, 51.8711104, 12.2029261, 12.2829261]",240061254,"""""",577702,517.5,12.2429261,2657.3
51.3406713,"[""Velbert, Kreis Mettmann, Regierungsbezirk D\u00fcsseldorf, Nordrhein-Westfalen, Deutschland"", ""Velbert""]","""""",82061,"[51.2931831, 51.3814164, 7.0013137, 7.1697795]",56679,"""""",197686408,"""""",7.0439912,""""""
52.2881045,"[""Minden, Kreis Minden-L\u00fcbbecke, Regierungsbezirk Detmold, Nordrhein-Westfalen, Deutschland"", ""Minden"", ""Minden ""]",1507.1,81698,"[52.2470645, 52.364871, 8.7920612, 8.9983147]",139087,"""""",198335685,540.9,8.9168852,4416.7
54.0715956,"[""Neum\u00fcnster, Schleswig-Holstein, 24534, Deutschland"", ""Neum\u00fcnster "", ""Neum\u00fcnster""]",1710.0,79335,"[54.0315956, 54.1115956, 9.9465296, 10.0265296]",25076969,"""""",118129,626.0,9.9865296,3715.2
53.7089898,"[""Norderstedt, Segeberg, Schleswig-Holstein, Deutschland"", ""Norderstedt "", ""Norderstedt""]",3193.3,78679,"[53.6481241, 53.759467, 9.9347555, 10.0729426]",422634,"""""",198112543,668.2,9.9891914,5408.3
53.048095,"[""Delmenhorst, Niedersachsen, 27749, Deutschland"", ""Delmenhorst"", ""Delmenhorst ""]",1770.8,77521,"[53.008095, 53.088095, 8.5886066, 8.6686066]",240077210,"""""",593399,602.1,8.6286066,5051.0
49.8926723,"[""Bamberg, Oberfranken, Bayern, 96047, Deutschland"", ""Bamberg "", ""Bamberg""]",3052.3,77179,"[49.8526723, 49.9326723, 10.8476149, 10.9276149]",1646638496,"""""",17498162,992.6,10.8876149,8684.2
51.2561445,"[""Viersen, Kreis Viersen, Regierungsbezirk D\u00fcsseldorf, Nordrhein-Westfalen, Deutschland"", ""Viersen "", ""Viersen""]",1741.7,76586,"[51.2165296, 51.3223372, 6.2642195, 6.4578125]",88531,"""""",198055816,550.0,6.3904284,3985.5
53.5278793,"[""Wilhelmshaven, Niedersachsen, 26382, Deutschland"", ""Wilhelmshaven "", ""Wilhelmshaven""]",1493.0,76316,"[53.4878793, 53.5678793, 8.066301, 8.146301]",240098830,"""""",587115,505.9,8.106301,3253.4
50.8117327,"[""Marburg, Landkreis Marburg-Biedenkopf, Regierungsbezirk Gie\u00dfen, Hessen, Deutschland"", ""Marburg""]","""""",76226,"[50.7371111, 50.8598656, 8.6274159, 8.8581288]",225494,"""""",198163373,"""""",8.7757742,""""""
52.2797707,"[""Rheine, Kreis Steinfurt, Regierungsbezirk M\u00fcnster, Nordrhein-Westfalen, Deutschland"", ""Rheine "", ""Rheine""]",1490.3,76018,"[52.1918785, 52.3419237, 7.3655076, 7.5860993]",155707,"""""",198727468,574.2,7.4373615,3358.7
51.5718665,"[""Gladbeck, Kreis Recklinghausen, Regierungsbezirk M\u00fcnster, Nordrhein-Westfalen, Deutschland"", ""Gladbeck "", ""Gladbeck""]",1945.3,75689,"[51.5326431, 51.6235979, 6.9208602, 7.0321195]",63504,"""""",198111004,652.6,6.9877343,4835.0
51.6604071,"[""Dorsten, Kreis Recklinghausen, Regierungsbezirk M\u00fcnster, Nordrhein-Westfalen, Deutschland"", ""Dorsten""]","""""",75252,"[51.6227637, 51.801026, 6.8938575, 7.0882141]",63505,"""""",198025342,"""""",6.9647431,""""""
53.248706,"[""L\u00fcneburg, Niedersachsen, Deutschland"", ""L\u00fcneburg "", ""L\u00fcneburg""]",2583.7,75192,"[53.1918393, 53.2866442, 10.3308253, 10.5143562]",2420744,"""""",198371214,735.6,10.407855,6200.0
50.8153071,"[""Troisdorf, Rhein-Sieg-Kreis, Regierungsbezirk K\u00f6ln, Nordrhein-Westfalen, Deutschland"", ""Troisdorf"", ""Troisdorf ""]",2480.0,74870,"[50.761555, 50.8742716, 7.0771987, 7.2148996]",55060,"""""",197432297,750.0,7.1593271,7306.1
51.936284,"[""Detmold, Kreis Lippe, Regierungsbezirk Detmold, Nordrhein-Westfalen, Deutschland"", ""Detmold "", ""Detmold""]",1638.9,74353,"[51.8587332, 51.9982701, 8.7630753, 8.9894431]",142681,"""""",197798798,519.8,8.8791526,3942.0
49.9427202,"[""Bayreuth, Oberfranken, Bayern, 95444, Deutschland"", ""Bayreuth"", ""Bayreuth ""]",2213.0,73999,"[49.9027202, 49.9827202, 11.5363079, 11.6163079]",21636385,"""""",115989,519.6,11.5763079,5315.9
51.5646195,"[""Castrop-Rauxel, Kreis Recklinghausen, Regierungsbezirk M\u00fcnster, Nordrhein-Westfalen, Deutschland"", ""Castrop-Rauxel "", ""Castrop-Rauxel""]",2074.8,73989,"[51.5201869, 51.6262817, 7.2424963, 7.3718796]",56664,"""""",197429694,638.0,7.3106175,4388.9
51.4002384,"[""Arnsberg, Hochsauerlandkreis, Regierungsbezirk Arnsberg, Nordrhein-Westfalen, Deutschland"", ""Arnsberg "", ""Arnsberg""]",1305.9,73814,"[51.3547136, 51.4913301, 7.8640301, 8.2102601]",157396,"""""",198136083,526.7,8.0605908,2494.0
51.218116,"[""L\u00fcdenscheid, M\u00e4rkischer Kreis, Regierungsbezirk Arnsberg, Nordrhein-Westfalen, Deutschland"", ""L\u00fcdenscheid "", ""L\u00fcdenscheid""]",1623.8,72894,"[51.1551181, 51.2707624, 7.5522069, 7.7232561]",168563,"""""",198776770,514.8,7.6395513,4780.2
52.4108261,"[""Brandenburg an der Havel, Brandenburg, Deutschland"", ""Brandenburg an der Havel""]","""""",71886,"[52.3115514, 52.541789, 12.3613397, 12.7256202]",62470,"""""",197724892,"""""",12.5497933,""""""
48.536217,"[""Landshut, NB, Bayern, Deutschland"", ""Landshut"", ""Landshut ""]",3968.8,71193,"[48.511294, 48.5653552, 12.1093163, 12.2076402]",263882467,"""""",138871635,875.0,12.1516551,8950.0
51.8382715,"[""Bocholt, Kreis Borken, Regierungsbezirk M\u00fcnster, Nordrhein-Westfalen, Deutschland"", ""Bocholt""]","""""",71036,"[51.7898183, 51.9175908, 6.4725106, 6.7211799]",162715,"""""",197820968,"""""",6.6148669,""""""
49.9740542,"[""Aschaffenburg, Unterfranken, Bayern, 63739, Deutschland"", ""Aschaffenburg""]","""""",69928,"[49.9340542, 50.0140542, 9.1093636, 9.1893636]",240047795,"""""",580579,"""""",9.1493636,""""""
52.624056,"[""Celle, Landkreis Celle, Niedersachsen, Deutschland"", ""Celle"", ""Celle ""]",1483.3,69706,"[52.5627418, 52.7283124, 9.9828941, 10.2128957]",1797918,"""""",198526905,566.7,10.081052,4270.5
47.7267063,"[""Kempten (Allg\u00e4u), Schwaben, Bayern, 87435, Deutschland"", ""Kempten (Allg\u00e4u)""]","""""",68330,"[47.6867063, 47.7667063, 10.2768835, 10.3568835]",240126519,"""""",244120472,"""""",10.3168835,""""""
50.5521486,"[""Fulda, Landkreis Fulda, Regierungsbezirk Kassel, Hessen, Deutschland, Europe"", ""Fulda""]","""""",67973,"[50.4994847, 50.6293394, 9.5659893, 9.7318787]",454863,"""""",198887630,"""""",9.676511,""""""
51.6747074,"[""Lippstadt, Kreis Soest, Regierungsbezirk Arnsberg, Nordrhein-Westfalen, Deutschland"", ""Lippstadt "", ""Lippstadt""]",1756.7,67936,"[51.6252638, 51.7277848, 8.1827493, 8.4850582]",152781,"""""",198726175,597.8,8.347194,3600.0
48.8362705,"[""Aalen, Verwaltungsgemeinschaft Aalen, Ostalbkreis, Regierungsbezirk Stuttgart, Baden-W\u00fcrttemberg, Deutschland"", ""Aalen""]","""""",67849,"[48.7481716, 48.8987785, 9.9714036, 10.2779161]",915486,"""""",198014198,"""""",10.0931765,""""""
51.5623618,"[""Dinslaken, Kreis Wesel, Regierungsbezirk D\u00fcsseldorf, Nordrhein-Westfalen, Deutschland"", ""Dinslaken""]","""""",67489,"[51.5324525, 51.6081392, 6.6864934, 6.8661487]",54462,"""""",197713288,"""""",6.7345106,""""""
52.1152245,"[""Herford-Stadt, Herford, Kreis Herford, Regierungsbezirk Detmold, Nordrhein-Westfalen, Deutschland"", ""Herford "", ""Herford""]",1541.2,66923,"[52.0862769, 52.1448612, 8.6363162, 8.726706]",2440448,"""""",198650474,572.2,8.6711118,4163.2
50.8696345,"[""Kerpen, Rhein-Erft-Kreis, Regierungsbezirk K\u00f6ln, Nordrhein-Westfalen, Deutschland"", ""Kerpen"", ""Kerpen ""]",2321.1,65420,"[50.8245397, 50.9254194, 6.549486, 6.8052384]",168483,"""""",197826528,1000.0,6.694734,4628.2
50.4950632,"[""Plauen, Vogtlandkreis, Sachsen, Deutschland"", ""Plauen""]","""""",65148,"[50.4304178, 50.5748845, 12.0594107, 12.2264262]",409608,"""""",198278223,"""""",12.1346523,""""""
49.9948956,"[""R\u00fcsselsheim am Main, Kreis Gro\u00df-Gerau, Regierungsbezirk Darmstadt, Hessen, 65428, Deutschland"", ""R\u00fcsselsheim am Main""]","""""",64922,"[49.9387245, 50.0252731, 8.3563769, 8.5493031]",444912,"""""",198001629,"""""",8.4118279,""""""
50.4302589,"[""Neuwied, Landkreis Neuwied, Rheinland-Pfalz, Deutschland"", ""Neuwied""]","""""",64661,"[50.4118038, 50.5091018, 7.3834047, 7.5832597]",79194,"""""",198061147,"""""",7.4663112,""""""
48.7084162,"[""Sindelfingen, Landkreis B\u00f6blingen, Regierungsbezirk Stuttgart, Baden-W\u00fcrttemberg, Deutschland"", ""Sindelfingen""]","""""",64599,"[48.6737578, 48.7468285, 8.9047675, 9.1083624]",722092,"""""",198363039,"""""",9.0035455,""""""
50.9802813,"[""Weimar, Th\u00fcringen, 99423, Deutschland"", ""Weimar "", ""Weimar""]",2005.1,64426,"[50.9402813, 51.0202813, 11.2890855, 11.3690855]",423889907,"""""",246526814,595.8,11.3290855,6000.0
53.5574458,"[""Neubrandenburg, Mecklenburgische Seenplatte, Mecklenburg-Vorpommern, Deutschland"", ""Neubrandenburg "", ""Neubrandenburg""]",1815.2,64259,"[53.4441983, 53.6189995, 13.1367108, 13.3441823]",62705,"""""",198679514,579.9,13.2602781,4029.1
51.0941656,"[""Dormagen, Rhein-Kreis Neuss, Regierungsbezirk D\u00fcsseldorf, Nordrhein-Westfalen, 41539, Deutschland"", ""Dormagen""]","""""",64177,"[51.0744014, 51.1150341, 6.8123941, 6.8485717]",3696971,"""""",198692038,"""""",6.8407931,""""""
51.0905783,"[""Grevenbroich, Rhein-Kreis Neuss, Regierungsbezirk D\u00fcsseldorf, Nordrhein-Westfalen, 41515, Deutschland"", ""Grevenbroich"", ""Grevenbroich ""]",2027.0,63204,"[51.0780368, 51.0984876, 6.5767524, 6.6144213]",8010070,"""""",199150402,544.4,6.5835365,4288.3
47.8539273,"[""Rosenheim, Bayern, Obb, Bayern, 83022, Deutschland"", ""Rosenheim"", ""Rosenheim ""]",4785.7,63080,"[47.8139273, 47.8939273, 12.087262, 12.167262]",51296461,"""""",230049,500.0,12.127262,8678.6
51.5942009,"[""Herten, Kreis Recklinghausen, Regierungsbezirk M\u00fcnster, Nordrhein-Westfalen, Deutschland"", ""Herten"", ""Herten ""]",1693.6,61669,"[51.5508324, 51.6341591, 7.0666089, 7.1796486]",63503,"""""",198681402,530.7,7.1368071,5080.8
50.9540457,"[""Bergheim, Rhein-Erft-Kreis, Regierungsbezirk K\u00f6ln, Nordrhein-Westfalen, Deutschland"", ""Bergheim "", ""Bergheim""]",2006.2,61099,"[50.9159819, 51.0219049, 6.5635471, 6.7674016]",168469,"""""",197826488,780.5,6.6410004,5045.9
48.8001179,"[""Schw\u00e4bisch Gm\u00fcnd, Verwaltungsgemeinschaft Schw\u00e4bisch Gm\u00fcnd, Ostalbkreis, Regierungsbezirk Stuttgart, Baden-W\u00fcrttemberg, Deutschland"", ""Schw\u00e4bisch Gm\u00fcnd""]","""""",60914,"[48.7145541, 48.8444338, 9.7137136, 9.9435797]",2792080,"""""",198437990,"""""",9.7963529,""""""
52.4276606,"[""Garbsen, Region Hannover, Niedersachsen, Deutschland"", ""Garbsen"", ""Garbsen ""]",2299.8,60875,"[52.397959, 52.5012183, 9.484328, 9.6453795]",59417,"""""",198017255,989.6,9.6005102,4781.1
51.6576909,"[""Wesel, Kreis Wesel, Regierungsbezirk D\u00fcsseldorf, Nordrhein-Westfalen, Deutschland"", ""Wesel""]","""""",60496,"[51.6162996, 51.7236065, 6.4603134, 6.7137325]",58590,"""""",198104370,"""""",6.617087,""""""
47.6505715,"[""Friedrichshafen, Verwaltungsgemeinschaft Friedrichshafen, Bodenseekreis, Regierungsbezirk T\u00fcbingen, Baden-W\u00fcrttemberg, Deutschland"", ""Friedrichshafen""]","""""",60088,"[47.6378052, 47.7378725, 9.3815131, 9.5608112]",2783849,"""""",198534499,"""""",9.4797531,""""""
50.8807379,"[""H\u00fcrth, Rhein-Erft-Kreis, Regierungsbezirk K\u00f6ln, Nordrhein-Westfalen, 50354, Deutschland"", ""H\u00fcrth""]","""""",59762,"[50.8368754, 50.9115756, 6.7786616, 6.9232481]",162473,"""""",198775072,"""""",6.876568,""""""
54.3159851,"[""Stralsund, Vorpommern-R\u00fcgen, Mecklenburg-Vorpommern, Deutschland"", ""Stralsund "", ""Stralsund""]",2069.8,59517,"[54.245042, 54.3475665, 12.99386, 13.1781757]",26225,"""""",198714448,757.6,13.0904622,5198.7
48.4716556,"[""Offenburg, Verwaltungsgemeinschaft Offenburg, Ortenaukreis, Regierungsbezirk Freiburg, Baden-W\u00fcrttemberg, Deutschland"", ""Offenburg""]","""""",59060,"[48.3968238, 48.5526917, 7.8616433, 8.0284868]",452988,"""""",197983145,"""""",7.944378,""""""
54.095791,"[""Greifswald, Vorpommern-Greifswald, Mecklenburg-Vorpommern, Deutschland"", ""Greifswald"", ""Greifswald ""]",1909.1,58886,"[54.0541157, 54.1853448, 13.3194771, 13.5078273]",62363,"""""",197690960,530.0,13.3815238,3451.1
51.1027227,"[""Langenfeld (Rheinland), Katzbergstra\u00dfe, Berghausen, Langenfeld, Kreis Mettmann, Regierungsbezirk D\u00fcsseldorf, Nordrhein-Westfalen, 40764, Deutschland"", ""Langenfeld (Rheinland)""]","""""",58698,"[51.0977227, 51.1077227, 6.9331175, 6.9431175]",4597025889,"""""",57060485,"""""",6.9381175,""""""
52.3412273,"[""Frankfurt (Oder), Brandenburg, 15230, Deutschland"", ""Frankfurt (Oder)""]","""""",58237,"[52.3012273, 52.3812273, 14.509452, 14.589452]",291222598,"""""",244121702,"""""",14.549452,""""""
48.3954965,"[""Neu-Ulm, Landkreis Neu-Ulm, Schwaben, Bayern, Deutschland"", ""Neu-Ulm""]","""""",57727,"[48.3310324, 48.433496, 9.9674293, 10.1315955]",941087,"""""",198119865,"""""",10.00589,""""""
50.66129,"[""Euskirchen, Kreis Euskirchen, Regierungsbezirk K\u00f6ln, Nordrhein-Westfalen, Deutschland"", ""Euskirchen "", ""Euskirchen""]",1859.2,57715,"[50.5604752, 50.7029759, 6.710442, 6.9349158]",1403657,"""""",198991035,645.8,6.7871681,4166.7
52.1039941,"[""Hameln, Landkreis Hameln-Pyrmont, Niedersachsen, Deutschland"", ""Hameln"", ""Hameln ""]",1360.0,57228,"[52.0429341, 52.1675652, 9.2592036, 9.461703]",1730383,"""""",198683155,540.9,9.3561569,3380.0
51.5348835,"[""Unna, Kreis Unna, Regierungsbezirk Arnsberg, Nordrhein-Westfalen, Deutschland"", ""Unna"", ""Unna ""]",1774.2,57158,"[51.4904102, 51.5786497, 7.6287533, 7.8429416]",158445,"""""",197818397,844.7,7.689014,5322.6
48.7031377,"[""G\u00f6ppingen, Vereinbarte Verwaltungsgemeinschaft der Stadt G\u00f6ppingen, Landkreis G\u00f6ppingen, Regierungsbezirk Stuttgart, Baden-W\u00fcrttemberg, Deutschland"", ""G\u00f6ppingen""]","""""",57094,"[48.6549775, 48.7762403, 9.5912214, 9.752372]",2792098,"""""",198729452,"""""",9.6541116,""""""
50.7702908,"[""Stolberg, St\u00e4dteregion Aachen, Regierungsbezirk K\u00f6ln, Nordrhein-Westfalen, Deutschland"", ""Stolberg (Rhld.)"", ""Stolberg ""]",1857.1,56751,"[50.6846999, 50.8056741, 6.1745342, 6.3656141]",157996,"""""",197653771,622.9,6.2295504,4564.1
51.1563185,"[""G\u00f6rlitz, Sachsen, Deutschland"", ""G\u00f6rlitz""]","""""",56391,"[51.052564, 51.2279599, 14.9116798, 15.0179757]",409676,"""""",198285322,"""""",14.991018,""""""
50.81753,"[""Eschweiler, St\u00e4dteregion Aachen, Regierungsbezirk K\u00f6ln, Nordrhein-Westfalen, 52249, Deutschland"", ""Eschweiler "", ""Eschweiler""]",1666.7,56207,"[50.7782884, 50.8846939, 6.1904859, 6.3409387]",157995,"""""",197830479,664.6,6.2629956,4968.8
50.7752776,"[""St. Augustin, Rhein-Sieg-Kreis, Regierungsbezirk K\u00f6ln, Nordrhein-Westfalen, 53757, Deutschland"", ""Sankt Augustin""]",2456.0,55873,"[50.7393785, 50.800533, 7.1254004, 7.2456751]",158642,"""""",198136860,914.3,7.1895507,5571.4
51.1674417,"[""Hilden, Kreis Mettmann, Regierungsbezirk D\u00fcsseldorf, Nordrhein-Westfalen, Deutschland"", ""Hilden""]","""""",55817,"[51.1405004, 51.1979841, 6.8907327, 6.986593]",66555,"""""",198682623,"""""",6.9307271,""""""
51.2652237,"[""Meerbusch, Rhein-Kreis Neuss, Regierungsbezirk D\u00fcsseldorf, Nordrhein-Westfalen, Deutschland"", ""Meerbusch"", ""Meerbusch ""]",4017.5,55548,"[51.2336015, 51.3367399, 6.5851188, 6.7350417]",161503,"""""",198729577,860.8,6.6760958,9729.9
48.8317396,"[""Waiblingen, Rems-Murr-Kreis, Regierungsbezirk Stuttgart, Baden-W\u00fcrttemberg, Deutschland"", ""Waiblingen""]","""""",55123,"[48.8105117, 48.9091159, 9.2758953, 9.4430764]",401697,"""""",198262275,"""""",9.3158532,""""""
48.7580777,"[""Baden-Baden, Regierungsbezirk Karlsruhe, Baden-W\u00fcrttemberg, 76530, Deutschland"", ""Baden-Baden "", ""Baden-Baden""]",3177.3,54718,"[48.7180777, 48.7980777, 8.2015239, 8.2815239]",240099245,"""""",591622,820.8,8.2415239,9245.3
51.4007175,"[""Hattingen, Ennepe-Ruhr-Kreis, Regierungsbezirk Arnsberg, Nordrhein-Westfalen, Deutschland"", ""Hattingen""]","""""",54628,"[51.3099383, 51.4252894, 7.1080627, 7.2571612]",162828,"""""",198139116,"""""",7.1862486,""""""
52.5224659,"[""Lingen (Ems), Landkreis Emsland, Niedersachsen, Deutschland"", ""Lingen (Ems)"", ""Lingen ""]",1636.5,54117,"[52.4201232, 52.6022057, 7.1935481, 7.4539855]",1075335,"""""",198359802,568.2,7.316584,4909.5
50.9978859,"[""Pulheim, Rhein-Erft-Kreis, Regierungsbezirk K\u00f6ln, Nordrhein-Westfalen, 50259, Deutschland"", ""Pulheim""]",3144.2,53900,"[50.9387455, 51.0659186, 6.7111925, 6.8447836]",168464,"""""",197885279,823.2,6.8029624,5950.0
50.2373164,"[""Bad Homburg vor der H\u00f6he, Hochtaunuskreis, Regierungsbezirk Darmstadt, Hessen, Deutschland"", ""Bad Homburg v. d. H\u00f6he""]","""""",53884,"[50.2003246, 50.2743799, 8.4960683, 8.7124249]",338875,"""""",198016633,"""""",8.56860436306261,""""""
52.0857452,"[""Bad Salzuflen, Kreis Lippe, Regierungsbezirk Detmold, Nordrhein-Westfalen, Deutschland"", ""Bad Salzuflen "", ""Bad Salzuflen""]",1811.5,53856,"[52.0198446, 52.1267779, 8.6532347, 8.8565711]",142623,"""""",197809798,553.7,8.7534422,5434.5
52.443118,"[""Langenhagen, Region Hannover, Niedersachsen, Deutschland"", ""Langenhagen "", ""Langenhagen""]",2650.8,53790,"[52.4228424, 52.506383, 9.6288452, 9.7766661]",59415,"""""",198674758,651.6,9.738994,5167.4
50.0499945,"[""Schweinfurt, Unterfranken, Bayern, 97421, Deutschland, Europe"", ""Schweinfurt""]","""""",53437,"[50.0099945, 50.0899945, 10.193302, 10.273302]",240106077,"""""",593373,"""""",10.233302,""""""
49.3539802,"[""Neustadt, Neustadt an der Weinstra\u00dfe, Rheinland-Pfalz, 67433, Deutschland"", ""Neustadt an der Weinstra\u00dfe"", ""Neustadt ""]",1990.0,53353,"[49.3139802, 49.3939802, 8.0950021, 8.1750021]",1686996669,"""""",17590082,518.3,8.1350021,5970.0
52.4359731,"[""Nordhorn, Landkreis Grafschaft Bentheim, Niedersachsen, Deutschland"", ""Nordhorn "", ""Nordhorn""]",1458.3,53278,"[52.3597275, 52.5275094, 6.9984549, 7.2030649]",1853267,"""""",199060894,516.0,7.0707659,3469.6
51.4353047,"[""Menden (Sauerland), Westtangente, Platte Heide, Menden, M\u00e4rkischer Kreis, Regierungsbezirk Arnsberg, Nordrhein-Westfalen, 58706, Deutschland"", ""Menden (Sauerland)""]","""""",53046,"[51.4303047, 51.4403047, 7.7869706, 7.7969706]",1994625303,"""""",20310598,"""""",7.7919706,""""""
50.5525346,"[""Wetzlar, Lahn-Dill-Kreis, Regierungsbezirk Gie\u00dfen, Hessen, Deutschland"", ""Wetzlar""]","""""",52828,"[50.508213, 50.6331927, 8.4438778, 8.6189053]",215978,"""""",198215932,"""""",8.5074406,""""""
51.7627633,"[""Ahlen, Kreis Warendorf, Regierungsbezirk M\u00fcnster, Nordrhein-Westfalen, Deutschland"", ""Ahlen""]","""""",52530,"[51.7001126, 51.831293, 7.7881907, 7.9915846]",152285,"""""",197809612,"""""",7.8909086,""""""
52.1625283,"[""Wolfenb\u00fcttel, Landkreis Wolfenb\u00fcttel, Niedersachsen, Deutschland"", ""Wolfenb\u00fcttel""]","""""",52357,"[52.1208596, 52.2234034, 10.431872, 10.6439294]",1432648,"""""",198483228,"""""",10.5348215,""""""
50.9096219,"[""Frechen, Rhein-Erft-Kreis, Regierungsbezirk K\u00f6ln, Nordrhein-Westfalen, 50226, Deutschland"", ""Frechen""]","""""",52212,"[50.8760716, 50.94956, 6.7199507, 6.855158]",168477,"""""",198108383,"""""",6.8081935,""""""
52.2774772,"[""Ibbenb\u00fcren, Kreis Steinfurt, Regierungsbezirk M\u00fcnster, Nordrhein-Westfalen, Deutschland"", ""Ibbenb\u00fcren "", ""Ibbenb\u00fcren""]",1571.1,52037,"[52.1980421, 52.3460605, 7.6036447, 7.8429724]",155641,"""""",198772763,673.9,7.7151417,2920.0
48.5748229,"[""Passau, NB, Bayern, 94032, Deutschland"", ""Passau"", ""Passau ""]",2107.6,51781,"[48.5348229, 48.6148229, 13.4209744, 13.5009744]",240057351,"""""",579237,691.3,13.4609744,6322.8
51.7854839,"[""Kleve, Kreis Kleve, Regierungsbezirk D\u00fcsseldorf, Nordrhein-Westfalen, 47533, Deutschland"", ""Kleve "", ""Kleve""]",1854.6,51320,"[51.7668236, 51.8042577, 6.1079035, 6.1659681]",3301021,"""""",199248616,772.4,6.13136741533014,3726.4
51.2641433,"[""Willich, Kreis Viersen, Regierungsbezirk D\u00fcsseldorf, Nordrhein-Westfalen, 47877, Deutschland"", ""Willich""]","""""",51179,"[51.2226198, 51.299894, 6.4129717, 6.6259906]",88547,"""""",198305351,"""""",6.5446958,""""""
51.9059936,"[""Goslar, Landkreis Goslar, Niedersachsen, Deutschland, Europe"", ""Goslar""]","""""",51128,"[51.8438787, 52.0059348, 10.3173163, 10.6511856]",1421453,"""""",198261845,"""""",10.4266284,""""""
49.3165553,"[""Speyer, Rheinland-Pfalz, 67346, Deutschland"", ""Speyer""]","""""",50931,"[49.2765553, 49.3565553, 8.393615, 8.473615]",240074382,"""""",592743,"""""",8.433615,""""""
53.3670541,"[""Emden, Niedersachsen, 26721, Deutschland"", ""Emden"", ""Emden ""]",1460.4,50607,"[53.3270541, 53.4070541, 7.1658304, 7.2458304]",240126844,"""""",593726,500.0,7.2058304,4381.2
51.0277658,"[""Gummersbach, Oberbergischer Kreis, Regierungsbezirk K\u00f6ln, Nordrhein-Westfalen, Deutschland"", ""Gummersbach "", ""Gummersbach""]",1474.7,50497,"[50.9731423, 51.0862249, 7.4351341, 7.7136816]",173858,"""""",197675437,581.8,7.5630545,3541.7
49.8489566,"[""Bad Kreuznach, Rheinland-Pfalz, 55545, Deutschland"", ""Bad Kreuznach""]","""""",50484,"[49.2089566, 50.4889566, 7.2228083, 8.5028083]",240068876,"""""",597158,"""""",7.8628083,""""""
47.7811014,"[""Ravensburg, Verwaltungsverband Mittleres Schussental, Landkreis Ravensburg, Regierungsbezirk T\u00fcbingen, Baden-W\u00fcrttemberg, Deutschland"", ""Ravensburg""]","""""",50393,"[47.701165, 47.8155938, 9.483661, 9.6631781]",2808301,"""""",199130997,"""""",9.612468,""""""
48.684969,"[""B\u00f6blingen, Landkreis B\u00f6blingen, Regierungsbezirk Stuttgart, Baden-W\u00fcrttemberg, Deutschland"", ""B\u00f6blingen""]","""""",50035,"[48.6550168, 48.7037556, 8.9322423, 9.1140545]",722090,"""""",198005264,"""""",9.0113444,""""""
52.3217849,"[""Peine, Landkreis Peine, Niedersachsen, Deutschland"", ""Peine""]","""""",49901,"[52.2580972, 52.3744919, 10.1176828, 10.3483778]",1182561,"""""",198385418,"""""",10.2349489,""""""
50.789982,"[""Erftstadt, Rhein-Erft-Kreis, Regierungsbezirk K\u00f6ln, Nordrhein-Westfalen, 50374, Deutschland"", ""Erftstadt""]",2298.4,49647,"[50.7171172, 50.862727, 6.6785891, 6.8520105]",168482,"""""",197667140,600.0,6.78154922122218,4642.9
53.7532486,"[""Elmshorn, Pinneberg, Schleswig-Holstein, Deutschland"", ""Elmshorn""]",2497.5,49618,"[53.7260891, 53.7813047, 9.6216231, 9.7214726]",443302,"""""",198000238,1096.5,9.6524559,4588.2
48.6767637,"[""Heidenheim, Verwaltungsgemeinschaft Heidenheim an der Brenz, Landkreis Heidenheim, Regierungsbezirk Stuttgart, Baden-W\u00fcrttemberg, Deutschland"", ""Heidenheim an der Brenz"", ""Heidenheim ""]",1794.2,49297,"[48.643614, 48.7832977, 10.1023345, 10.2792202]",2791896,"""""",198607915,781.2,10.152923,3220.3
47.6120896,"[""L\u00f6rrach, Verwaltungsgemeinschaft L\u00f6rrach, Landkreis L\u00f6rrach, Regierungsbezirk Freiburg, Baden-W\u00fcrttemberg, Deutschland"", ""L\u00f6rrach"", ""L\u00f6rrach ""]",3549.1,49213,"[47.5918984, 47.6773603, 7.6335003, 7.7290086]",2787952,"""""",198456651,1566.7,7.6607218,7090.9
48.8574209,"[""Rastatt, Vereinbarte Verwaltungsgemeinschaft Rastatt, Landkreis Rastatt, Regierungsbezirk Karlsruhe, Baden-W\u00fcrttemberg, 76437, Deutschland"", ""Rastatt""]","""""",49100,"[48.8141378, 48.9197337, 8.115802, 8.2646818]",907178,"""""",198035600,"""""",8.2088088,""""""
51.6149389,"[""Bergkamen, Kreis Unna, Regierungsbezirk Arnsberg, Nordrhein-Westfalen, 59192, Deutschland"", ""Bergkamen""]",1795.1,48829,"[51.5877449, 51.6610852, 7.5605974, 7.6904286]",158457,"""""",197831174,538.9,7.6362876,3158.3
52.2014399,"[""Bad Oeynhausen, Kreis Minden-L\u00fcbbecke, Regierungsbezirk Detmold, Nordrhein-Westfalen, Deutschland"", ""Bad Oeynhausen "", ""Bad Oeynhausen""]",1480.0,48747,"[52.1624377, 52.2764885, 8.7206964, 8.8720625]",144930,"""""",197858020,549.7,8.7981244,3500.0
51.8428202,"[""Rheda-Wiedenbr\u00fcck, Kreis G\u00fctersloh, Regierungsbezirk Detmold, Nordrhein-Westfalen, 33378, Deutschland"", ""Rheda-Wiedenbr\u00fcck""]","""""",48685,"[51.7896083, 51.8979135, 8.1996163, 8.4018021]",78727,"""""",197718666,"""""",8.2985615,""""""
53.86878,"[""Cuxhaven, Landkreis Cuxhaven, Niedersachsen, Deutschland"", ""Cuxhaven "", ""Cuxhaven""]",1695.0,48470,"[53.7588756, 53.892285, 8.5520184, 8.863906]",1518688,"""""",198471802,831.4,8.698286,5000.0
49.5445804,"[""Frankenthal, Frankenthal (Pfalz), Rheinland-Pfalz, 67227, Deutschland"", ""Frankenthal (Pfalz)""]","""""",48417,"[49.5045804, 49.5845804, 8.3140061, 8.3940061]",1705457707,"""""",17734621,"""""",8.3540061,""""""
48.4008273,"[""Freising, Landkreis Freising, Obb, Bayern, Deutschland"", ""Freising""]","""""",48318,"[48.330606, 48.4490313, 11.6404507, 11.7925143]",30005,"""""",198714642,"""""",11.7439565,""""""
48.7997485,"[""Leonberg, Landkreis B\u00f6blingen, Regierungsbezirk Stuttgart, Baden-W\u00fcrttemberg, 71229, Deutschland"", ""Leonberg""]","""""",48222,"[48.745869, 48.8334998, 8.9571285, 9.0688097]",722150,"""""",198175009,"""""",9.0127567,""""""
50.7627913,"[""Bornheim, Rhein-Sieg-Kreis, Regierungsbezirk K\u00f6ln, Nordrhein-Westfalen, 53332, Deutschland"", ""Bornheim""]","""""",48173,"[50.7186347, 50.8053615, 6.8594354, 7.0667005]",168426,"""""",197667020,"""""",6.9890508,""""""
47.7617515,"[""Singen, Verwaltungsgemeinschaft Singen (Hohentwiel), Landkreis Konstanz, Regierungsbezirk Freiburg, Baden-W\u00fcrttemberg, 78224, Deutschland"", ""Singen "", ""Singen (Hohentwiel)""]",2871.3,47716,"[47.6968108, 47.8169484, 8.8084216, 8.9267002]",2785095,"""""",198534621,911.7,8.8348709,6346.2
52.2153588,"[""Gronau (Westf), Steinstra\u00dfe, Gronau, Kreis Borken, Regierungsbezirk M\u00fcnster, Nordrhein-Westfalen, 48599, Deutschland"", ""Gronau (Westf.)""]","""""",47671,"[52.2103588, 52.2203588, 7.0149626, 7.0249626]",4172254775,"""""",53036904,"""""",7.0199626,""""""
48.8819801,"[""Straubing, NB, Bayern, 94315, Deutschland"", ""Straubing""]","""""",47586,"[48.8419801, 48.9219801, 12.529716, 12.609716]",46902829,"""""",224625,"""""",12.569716,""""""
51.5725501,"[""Soest, Kreis Soest, Regierungsbezirk Arnsberg, Nordrhein-Westfalen, 59494, Deutschland"", ""Soest""]","""""",47376,"[51.5214743, 51.6275581, 7.9831444, 8.1762011]",153481,"""""",198726432,"""""",8.1061259,""""""
53.599794,"[""Stade, Niedersachsen, Deutschland"", ""Stade"", ""Stade ""]",1966.7,47330,"[53.5386106, 53.7012013, 9.3738591, 9.5506402]",444799,"""""",198120217,540.9,9.475438,4809.1
50.7754417,"[""Hennef (Sieg), Rhein-Sieg-Kreis, Regierungsbezirk K\u00f6ln, Nordrhein-Westfalen, 53773, Deutschland"", ""Hennef (Sieg)"", ""Hennef ""]",2298.9,47293,"[50.6962221, 50.8132773, 7.2280253, 7.4390372]",36042,"""""",197361353,727.3,7.2847945,5454.6
48.2592477,"[""Dachau, Landkreis Dachau, Obb, Bayern, 85221, Deutschland"", ""Dachau""]","""""",47255,"[48.227495, 48.3117077, 11.3843887, 11.5025338]",934468,"""""",198351334,"""""",11.4354419,""""""
50.8771537,"[""Alsdorf, St\u00e4dteregion Aachen, Regierungsbezirk K\u00f6ln, Nordrhein-Westfalen, 52477, Deutschland"", ""Alsdorf""]","""""",46891,"[50.8417801, 50.8940929, 6.1218109, 6.230616]",157993,"""""",198773719,"""""",6.1620774,""""""
49.3464752,"[""Neunkirchen, Landkreis Neunkirchen, Saarland, Deutschland"", ""Neunkirchen "", ""Neunkirchen""]",1275.0,46767,"[49.2855938, 49.4074009, 7.1058824, 7.2689473]",1187145,"""""",198361621,500.0,7.18432094881367,3825.0
51.445525,"[""Schwerte, Kreis Unna, Regierungsbezirk Arnsberg, Nordrhein-Westfalen, 58239, Deutschland"", ""Schwerte""]","""""",46641,"[51.3852385, 51.4759983, 7.5032305, 7.6350452]",158413,"""""",198773901,"""""",7.5674652,""""""
51.8283677,"[""D\u00fclmen, Kreis Coesfeld, Regierungsbezirk M\u00fcnster, Nordrhein-Westfalen, 48249, Deutschland"", ""D\u00fclmen""]","""""",46507,"[51.7785497, 51.9262598, 7.0996915, 7.4338712]",157767,"""""",198099027,"""""",7.2791406,""""""
50.8684545,"[""Herzogenrath, St\u00e4dteregion Aachen, Regierungsbezirk K\u00f6ln, Nordrhein-Westfalen, 52134, Deutschland"", ""Herzogenrath""]","""""",46462,"[50.8076786, 50.9134609, 6.057427, 6.1454703]",157992,"""""",197876459,"""""",6.0950514,""""""
52.200762,"[""Melle, Landkreis Osnabr\u00fcck, Niedersachsen, Deutschland"", ""Melle"", ""Melle ""]",1666.7,46451,"[52.1079455, 52.2831257, 8.2030537, 8.5173146]",1085139,"""""",198854971,657.9,8.338667,3323.5
49.1982825,"[""Landau, Landau in der Pfalz, Rheinland-Pfalz, 76829, Deutschland"", ""Landau in der Pfalz""]","""""",46292,"[49.1582825, 49.2382825, 8.0723441, 8.1523441]",240071404,"""""",579694,"""""",8.1123441,""""""
51.8666527,"[""Wittenberg, Sachsen-Anhalt, Deutschland"", ""Wittenberg""]","""""",46272,"[51.8186888, 52.013327, 12.4849047, 12.7767377]",1060610,"""""",198040725,"""""",12.646761,""""""
48.33460175,"[""Lahr, Verwaltungsgemeinschaft Lahr/Schwarzwald, Ortenaukreis, Regierungsbezirk Freiburg, Baden-W\u00fcrttemberg, 77933, Deutschland"", ""Lahr/Schwarzwald""]","""""",46156,"[48.2865257, 48.3821335, 7.7858394, 7.9787097]",453002,"""""",197983190,"""""",7.88320649377849,""""""
50.2005518,"[""Oberursel, Hochtaunuskreis, Regierungsbezirk Darmstadt, Hessen, 61440, Deutschland"", ""Oberursel (Taunus)""]","""""",46069,"[50.1673005, 50.2452253, 8.4534459, 8.6387555]",417461,"""""",198271021,"""""",8.580452,""""""
50.3219015,"[""Hof, Oberfranken, Bayern, 95028, Deutschland"", ""Hof""]","""""",45950,"[50.2819015, 50.3619015, 11.8778807, 11.9578807]",28979768,"""""",149993,"""""",11.9178807,""""""
48.6616311,"[""Filderstadt, Landkreis Esslingen, Regierungsbezirk Stuttgart, Baden-W\u00fcrttemberg, 70794, Deutschland"", ""Filderstadt""]","""""",45807,"[48.6237554, 48.694556, 9.1597336, 9.2703068]",2796535,"""""",198516459,"""""",9.2236805,""""""
48.8181556,"[""Fellbach, Rems-Murr-Kreis, Regierungsbezirk Stuttgart, Baden-W\u00fcrttemberg, Deutschland"", ""Fellbach""]","""""",45783,"[48.7782911, 48.8626678, 9.2371585, 9.3196965]",401692,"""""",197861800,"""""",9.278085,""""""
52.2003644,"[""B\u00fcnde, Kreis Herford, Regierungsbezirk Detmold, Nordrhein-Westfalen, 32257, Deutschland"", ""B\u00fcnde""]",1317.1,45712,"[52.1633372, 52.2586863, 8.4750735, 8.6357819]",147447,"""""",198719191,522.7,8.5827558,3253.2
50.9462725,"[""Gotha, Landkreis Gotha, Th\u00fcringen, 99867, Deutschland, Europe"", ""Gotha""]","""""",45589,"[50.892809, 50.9912832, 10.6223035, 10.781844]",2818690,"""""",198722631,"""""",10.6945265,""""""
49.5463334,"[""Weinheim, Rhein-Neckar-Kreis, Regierungsbezirk Karlsruhe, Baden-W\u00fcrttemberg, 69469, Deutschland"", ""Weinheim""]","""""",45114,"[49.4682379, 49.5938416, 8.6033587, 8.7804728]",454175,"""""",198291603,"""""",8.6717306,""""""
48.2342372,"[""Albstadt, Gemeindeverwaltungsverband Albstadt, Zollernalbkreis, Regierungsbezirk T\u00fcbingen, Baden-W\u00fcrttemberg, Deutschland"", ""Albstadt"", ""Albstadt ""]",1468.6,45023,"[48.1592196, 48.315199, 8.8834636, 9.0806477]",2779017,"""""",199192995,561.0,9.0104093,3384.9
50.0176771,"[""Rodgau, Landkreis Offenbach, Regierungsbezirk Darmstadt, Hessen, Deutschland"", ""Rodgau""]",2622.1,44725,"[49.9595812, 50.0725986, 8.8187867, 8.944647]",659746,"""""",198341056,1035.0,8.8853392,5258.0
49.124118,"[""Bruchsal, Verwaltungsgemeinschaft Bruchsal, Landkreis Karlsruhe, Regierungsbezirk Karlsruhe, Baden-W\u00fcrttemberg, 76646, Deutschland"", ""Bruchsal""]","""""",44532,"[49.0595244, 49.2004318, 8.5081576, 8.6896914]",659820,"""""",198362516,"""""",8.5980244,""""""
51.2222062,"[""Erkrath, Kreis Mettmann, Regierungsbezirk D\u00fcsseldorf, Nordrhein-Westfalen, 40699, Deutschland"", ""Erkrath""]","""""",44409,"[51.1927497, 51.2425308, 6.8710696, 6.9951823]",66535,"""""",197698711,"""""",6.9123242,""""""
50.8287139,"[""Br\u00fchl, Rhein-Erft-Kreis, Regierungsbezirk K\u00f6ln, Nordrhein-Westfalen, 50321, Deutschland"", ""Br\u00fchl""]","""""",44144,"[50.7848517, 50.8514325, 6.8334592, 6.9436983]",168481,"""""",197845871,"""""",6.9032947,""""""
52.7529379,"[""Oranienburg, Oberhavel, Brandenburg, 16515, Deutschland"", ""Oranienburg""]",2362.5,43982,"[52.7091775, 52.8464685, 13.1309851, 13.4306044]",1310102,"""""",198432166,659.1,13.2457591,5300.0
52.5055135,"[""Neustadt am R\u00fcbenberge, Region Hannover, Niedersachsen, Deutschland"", ""Neustadt am R\u00fcbenberge""]",1866.7,43964,"[52.4387602, 52.6769947, 9.238312, 9.6611885]",1162990,"""""",198400289,600.0,9.4635826,3741.7
52.3749334,"[""Lehrte, Region Hannover, Niedersachsen, 31275, Deutschland"", ""Lehrte""]","""""",43932,"[52.3220432, 52.4314396, 9.884847, 10.1563213]",1184255,"""""",198385618,"""""",9.9748557,""""""
48.47696,"[""Rottenburg am Neckar, Verwaltungsgemeinschaft Rottenburg am Neckar, Landkreis T\u00fcbingen, Regierungsbezirk T\u00fcbingen, Baden-W\u00fcrttemberg, 72108, Deutschland"", ""Rottenburg am Neckar""]","""""",43615,"[48.3968804, 48.5424393, 8.7555188, 9.0155745]",2778912,"""""",198696079,"""""",8.9336788,""""""
52.5678244,"[""Falkensee, Havelland, Brandenburg, 14612, Deutschland"", ""Falkensee""]",3123.8,43552,"[52.5437922, 52.6127649, 13.0003014, 13.1536965]",1251557,"""""",198878402,1388.9,13.0855621,7000.0
47.8803788,"[""Kaufbeuren, Schwaben, Bayern, 87600, Deutschland"", ""Kaufbeuren""]",2410.1,43478,"[47.8403788, 47.9203788, 10.582246, 10.662246]",240078045,"""""",588139,991.4,10.622246,7230.3
47.9867696,"[""Memmingen, Schwaben, Bayern, 87700, Deutschland"", ""Memmingen""]","""""",43470,"[47.9467696, 48.0267696, 10.141319, 10.221319]",240036844,"""""",244120471,"""""",10.181319,""""""
51.080992,"[""Erkelenz, Kreis Heinsberg, Regierungsbezirk K\u00f6ln, Nordrhein-Westfalen, 41812, Deutschland"", ""Erkelenz""]",1783.4,43392,"[51.0126515, 51.1170375, 6.2006991, 6.4772716]",67333,"""""",197698978,608.0,6.3160684,3398.5
51.5918443,"[""Kamen, Kreis Unna, Regierungsbezirk Arnsberg, Nordrhein-Westfalen, 59174, Deutschland"", ""Kamen""]","""""",43275,"[51.5485082, 51.6149748, 7.5902989, 7.7502902]",158453,"""""",198099496,"""""",7.6614305,""""""
48.9502631,"[""Bietigheim-Bissingen, Vereinbarte Verwaltungsgemeinschaft der Stadt Bietigheim-Bissingen, Landkreis Ludwigsburg, Regierungsbezirk Stuttgart, Baden-W\u00fcrttemberg, 74321, Deutschland"", ""Bietigheim-Bissingen""]","""""",43266,"[48.9242646, 48.9840387, 9.0675527, 9.1666674]",405807,"""""",198849837,"""""",9.1383314,""""""
51.226675,"[""Kaarst, Rhein-Kreis Neuss, Regierungsbezirk D\u00fcsseldorf, Nordrhein-Westfalen, 41564, Deutschland"", ""Kaarst""]",3674.8,43216,"[51.1786641, 51.2609735, 6.5600139, 6.6758748]",168485,"""""",198120824,806.4,6.6193924,4996.2
53.6615506,"[""Pinneberg, Schleswig-Holstein, Deutschland"", ""Pinneberg""]",3011.0,43155,"[53.6086307, 53.6838731, 9.7636444, 9.8286789]",443487,"""""",198308821,1428.6,9.7968682,6743.8
53.8909832,"[""Wismar, Nordwestmecklenburg, Mecklenburg-Vorpommern, Deutschland"", ""Wismar""]","""""",42906,"[53.8651019, 53.9430109, 11.3905913, 11.5335218]",62599,"""""",197699202,"""""",11.4647932,""""""
50.9833,"[""Eisenach, Th\u00fcringen, 99817, Deutschland, Europe"", ""Eisenach""]","""""",42710,"[50.9433, 51.0233, 10.2766999, 10.3566999]",240071610,"""""",592086,"""""",10.3166999,""""""
49.6752749,"[""Weiden i.d.OPf., Weiden in der Oberpfalz, OPf, Bayern, 92637, Deutschland"", ""Weiden i.d.OPf.""]","""""",42543,"[49.6352749, 49.7152749, 12.1231636, 12.2031636]",487224833,"""""",4539892,"""""",12.1631636,""""""
51.8443183,"[""Borken, Kreis Borken, Regierungsbezirk M\u00fcnster, Nordrhein-Westfalen, 46325, Deutschland"", ""Borken""]","""""",42509,"[51.7737275, 51.9328675, 6.7323128, 6.9236203]",162723,"""""",198101526,"""""",6.8582247,""""""
51.3066628,"[""Nettetal, Kreis Viersen, Regierungsbezirk D\u00fcsseldorf, Nordrhein-Westfalen, 41334, Deutschland"", ""Nettetal""]",1853.3,42265,"[51.2527722, 51.3659405, 6.1538213, 6.3265566]",88686,"""""",198066745,559.5,6.2364082,3866.7
49.4454211,"[""Amberg, OPf, Bayern, 92224, Deutschland"", ""Amberg""]","""""",42248,"[49.4054211, 49.4854211, 11.818728, 11.898728]",240071747,"""""",592530,"""""",11.858728,""""""
52.4827905,"[""Gifhorn, Niedersachsen, 38518, Deutschland"", ""Gifhorn""]",2076.4,42239,"[52.4472279, 52.5696038, 10.4242053, 10.6270957]",1392806,"""""",198294141,625.0,10.5445691,4234.4
51.5051574,"[""Nordhausen, Landkreis Nordhausen, Th\u00fcringen, 99734, Deutschland, Europe"", ""Nordhausen""]","""""",42014,"[51.4404771, 51.557286, 10.6761482, 10.9479648]",2400430,"""""",198368226,"""""",10.7925317,""""""
49.3181673,"[""Homburg, Saarpfalz-Kreis, Saarland, 66424, Deutschland"", ""Homburg "", ""Homburg""]",1509.3,41934,"[49.2474202, 49.3863745, 7.2737168, 7.4048307]",1184826,"""""",198104188,564.3,7.3340336,4166.8
53.4695604,"[""Aurich, Landkreis Aurich, Niedersachsen, Deutschland"", ""Aurich"", ""Aurich ""]",1581.4,41854,"[53.4054472, 53.5617576, 7.4018508, 7.6791409]",898628,"""""",198342551,596.0,7.4823808,3142.9
51.0654268,"[""Heinsberg, Kreis Heinsberg, Regierungsbezirk K\u00f6ln, Nordrhein-Westfalen, 52525, Deutschland"", ""Heinsberg"", ""Heinsberg ""]",1663.8,41673,"[50.9964629, 51.1221408, 6.0392268, 6.2139301]",158026,"""""",198136539,612.5,6.0984461,4991.4
49.3028611,"[""Ansbach, Mittelfranken, Bayern, 91522, Deutschland"", ""Ansbach "", ""Ansbach""]",1937.8,41652,"[49.2628611, 49.3428611, 10.5322288, 10.6122288]",31015267,"""""",164342,500.0,10.5722288,4062.5
50.011974,"[""Dreieich, Landkreis Offenbach, Regierungsbezirk Darmstadt, Hessen, 63303, Deutschland"", ""Dreieich""]","""""",41548,"[49.9533482, 50.0539497, 8.6352236, 8.7669837]",659750,"""""",198362471,"""""",8.7123912,""""""
52.4257979,"[""Wunstorf, Region Hannover, Niedersachsen, 31515, Deutschland"", ""Wunstorf""]",1921.4,41532,"[52.3625491, 52.5001637, 9.2727928, 9.5061503]",73888,"""""",198056094,649.0,9.4294425,5764.2
50.9169415,"[""Freiberg, Mittelsachsen, Sachsen, 09599, Deutschland"", ""Freiberg""]","""""",41496,"[50.8754646, 50.9590788, 13.2660828, 13.4005105]",416561,"""""",198074111,"""""",13.3428889,""""""
52.3077423,"[""Laatzen, Region Hannover, Niedersachsen, 30880, Deutschland"", ""Laatzen"", ""Laatzen b Hannover""]",2857.1,41449,"[52.2614451, 52.325963, 9.7634639, 9.9144861]",2012733,"""""",198560743,1225.4,9.8132829,5764.7
50.7928332,"[""Siegburg, Rhein-Sieg-Kreis, Regierungsbezirk K\u00f6ln, Nordrhein-Westfalen, 53721, Deutschland"", ""Siegburg""]","""""",41326,"[50.7797872, 50.8280134, 7.1741992, 7.3104812]",173121,"""""",198358444,"""""",7.2070774,""""""
50.258112,"[""Coburg, Oberfranken, Bayern, 96450, Deutschland"", ""Coburg""]",1768.0,41236,"[50.218112, 50.298112, 10.924463, 11.004463]",26118368,"""""",134510,743.7,10.964463,3940.0
50.6761759,"[""K\u00f6nigswinter, Rhein-Sieg-Kreis, Regierungsbezirk K\u00f6ln, Nordrhein-Westfalen, 53639, Deutschland"", ""K\u00f6nigswinter""]",2280.7,41050,"[50.6616848, 50.7476853, 7.1682649, 7.3720923]",173113,"""""",198778883,872.8,7.1935237,6842.1
48.6265854,"[""N\u00fcrtingen, Vereinbarte Verwaltungsgemeinschaft der Stadt N\u00fcrtingen, Landkreis Esslingen, Regierungsbezirk Stuttgart, Baden-W\u00fcrttemberg, 72622, Deutschland"", ""N\u00fcrtingen""]","""""",41017,"[48.576354, 48.6565781, 9.2799198, 9.4169838]",2795565,"""""",199195639,"""""",9.3365463,""""""
51.1999793,"[""Wei\u00dfenfels, Burgenlandkreis, Sachsen-Anhalt, Deutschland"", ""Wei\u00dfenfels"", ""Wei\u00dfenfels ""]",900.7,40874,"[51.1558341, 51.2887748, 11.8585971, 12.0747345]",2405268,"""""",238801641,544.5,11.9667857,2456.8
51.8926561,"[""Halberstadt, Landkreis Harz, Sachsen-Anhalt, Deutschland"", ""Halberstadt""]","""""",40871,"[51.8310037, 51.9571713, 10.8813728, 11.1748568]",1352956,"""""",198438991,"""""",11.0554519,""""""
52.0280674,"[""Lemgo, Kreis Lippe, Regierungsbezirk Detmold, Nordrhein-Westfalen, Deutschland"", ""Lemgo""]","""""",40871,"[51.9758594, 52.1043985, 8.8057572, 8.9971731]",142624,"""""",197621576,"""""",8.9012894,""""""
49.3295535,"[""Schwabach, Mittelfranken, Bayern, 91126, Deutschland"", ""Schwabach""]",2206.9,40781,"[49.2895535, 49.3695535, 10.9795132, 11.0595132]",26752984,"""""",139295,569.2,11.0195132,6170.7
49.1996961,"[""Pirmasens, Rheinland-Pfalz, 66953, Deutschland"", ""Pirmasens"", ""Pirmasens ""]",1121.9,40632,"[49.1596961, 49.2396961, 7.5687847, 7.6487847]",1701700293,"""""",17801700,500.0,7.6087847,3365.7
51.0908881,"[""Monheim am Rhein, Kreis Mettmann, Regierungsbezirk D\u00fcsseldorf, Nordrhein-Westfalen, 40789, Deutschland"", ""Monheim am Rhein""]","""""",40598,"[51.0647647, 51.1314443, 6.8529394, 6.9305776]",33070,"""""",197668969,"""""",6.8832264,""""""
48.6480545,"[""Kirchheim unter Teck, Vereinbarte Verwaltungsgemeinschaft der Stadt Kirchheim unter Teck, Landkreis Esslingen, Regierungsbezirk Stuttgart, Baden-W\u00fcrttemberg, 73230, Deutschland"", ""Kirchheim unter Teck""]","""""",40446,"[48.6087303, 48.6722291, 9.3918591, 9.5241535]",2793212,"""""",198608211,"""""",9.4510227,""""""
49.6810158,"[""Bensheim, Kreis Bergstra\u00dfe, Regierungsbezirk Darmstadt, Hessen, 64625, Deutschland"", ""Bensheim""]","""""",40326,"[49.6537978, 49.730273, 8.5438088, 8.7130697]",537055,"""""",198294268,"""""",8.6227577,""""""
48.1340035,"[""Germering, Landkreis F\u00fcrstenfeldbruck, Obb, Bayern, 82110, Deutschland"", ""Germering""]","""""",40285,"[48.1057036, 48.1586746, 11.3059679, 11.4128816]",933480,"""""",198189962,"""""",11.3657306,""""""
52.8351496,"[""Eberswalde, Barnim, Brandenburg, Deutschland"", ""Eberswalde""]","""""",40223,"[52.7764335, 52.8822012, 13.6576606, 13.9102101]",1318338,"""""",198462083,"""""",13.7997011,""""""
52.1990346,"[""L\u00f6hne, Kreis Herford, Regierungsbezirk Detmold, Nordrhein-Westfalen, 32584, Deutschland"", ""L\u00f6hne""]",1480.0,39867,"[52.1497713, 52.2518996, 8.6636962, 8.7888693]",147449,"""""",198091162,520.0,8.7141587,4440.0
48.6901796,"[""Leinfelden-Echterdingen, Landkreis Esslingen, Regierungsbezirk Stuttgart, Baden-W\u00fcrttemberg, Deutschland"", ""Leinfelden-Echterdingen""]","""""",39826,"[48.6460481, 48.7105066, 9.0848216, 9.2050075]",2796536,"""""",198731156,"""""",9.1525725,""""""
52.6051341,"[""Stendal, Sachsen-Anhalt, 39576, Deutschland"", ""Stendal""]","""""",39822,"[52.5621085, 52.6384856, 11.8222815, 11.9311075]",3651556,"""""",198624967,"""""",11.8593217,""""""
49.27806195,"[""Neumarkt, Landkreis Neumarkt in der Oberpfalz, OPf, Bayern, 92318, Deutschland"", ""Neumarkt "", ""Neumarkt i.d.OPf.""]",2384.0,39822,"[49.2359512, 49.3198223, 11.3746936, 11.5864273]",1028812,"""""",198372283,503.4,11.4874279019787,4145.7
49.1123963,"[""Schw\u00e4bisch Hall, Verwaltungsgemeinschaft Schw\u00e4bisch Hall, Landkreis Schw\u00e4bisch Hall, Regierungsbezirk Stuttgart, Baden-W\u00fcrttemberg, 74523, Deutschland"", ""Schw\u00e4bisch Hall""]","""""",39818,"[49.0459744, 49.1668978, 9.6132541, 9.8754428]",391370,"""""",198297072,"""""",9.7369047,""""""
53.4767351,"[""Buxtehude, Stade, Niedersachsen, 21614, Deutschland"", ""Buxtehude""]",2450.0,39782,"[53.4115224, 53.509454, 9.5971845, 9.7835121]",279078,"""""",197964645,969.6,9.7003941,4564.3
50.086546,"[""Hofheim am Taunus, Hofheim, Main-Taunus-Kreis, Regierungsbezirk Darmstadt, Hessen, Deutschland"", ""Hofheim am Taunus""]","""""",39692,"[50.0763742, 50.1243144, 8.4214598, 8.4742181]",5807049,"""""",199368955,"""""",8.447324,""""""
48.8045259,"[""Schorndorf, Vereinbarte Verwaltungsgemeinschaft der Stadt Schorndorf, Rems-Murr-Kreis, Regierungsbezirk Stuttgart, Baden-W\u00fcrttemberg, 73614, Deutschland"", ""Schorndorf""]","""""",39601,"[48.7403038, 48.8542558, 9.4731035, 9.5873122]",401643,"""""",198455251,"""""",9.5253326,""""""
51.0552368,"[""H\u00fcckelhoven, Kreis Heinsberg, Regierungsbezirk K\u00f6ln, Nordrhein-Westfalen, 41836, Deutschland"", ""H\u00fcckelhoven""]",1574.9,39585,"[50.9871104, 51.0898631, 6.15256, 6.306591]",158005,"""""",198099172,650.0,6.2247322,3359.8
51.1813907,"[""Bautzen - Budy\u0161in, Bautzen, Sachsen, Deutschland"", ""Bautzen""]","""""",39429,"[51.137272, 51.2308401, 14.3240672, 14.4926393]",1309674,"""""",198269212,"""""",14.4275735,""""""
49.2522866,"[""V\u00f6lklingen, Regionalverband Saarbr\u00fccken, Saarland, 66333, Deutschland"", ""V\u00f6lklingen""]",1203.9,39376,"[49.1636722, 49.2742608, 6.7112786, 6.9111163]",1184868,"""""",198104220,516.7,6.859519,2626.0
48.9397149,"[""Ettlingen, Landkreis Karlsruhe, Regierungsbezirk Karlsruhe, Baden-W\u00fcrttemberg, 76275, Deutschland"", ""Ettlingen""]","""""",39315,"[48.8766523, 48.9758066, 8.3486783, 8.4565002]",659839,"""""",198141758,"""""",8.40427,""""""
51.016265,"[""Freital, S\u00e4chsische Schweiz-Osterzgebirge, Sachsen, 01705, Deutschland"", ""Freital""]","""""",39300,"[50.9533548, 51.0357914, 13.5805231, 13.6986106]",455475,"""""",198829435,"""""",13.6530329,""""""
48.7178603,"[""Ostfildern, Landkreis Esslingen, Regierungsbezirk Stuttgart, Baden-W\u00fcrttemberg, 73760, Deutschland"", ""Ostfildern""]","""""",39205,"[48.6946689, 48.7442344, 9.21151, 9.311929]",2793022,"""""",198729602,"""""",9.2630693,""""""
52.0761541,"[""Ahaus, Kreis Borken, Regierungsbezirk M\u00fcnster, Nordrhein-Westfalen, 48683, Deutschland"", ""Ahaus""]","""""",39185,"[52.0210558, 52.1811292, 6.8669448, 7.0672986]",162877,"""""",198101598,"""""",7.004876,""""""
51.6425032,"[""Bitterfeld-Wolfen, Anhalt-Bitterfeld, Sachsen-Anhalt, Deutschland"", ""Bitterfeld-Wolfen""]","""""",39103,"[51.5824705, 51.7054651, 12.1785665, 12.3942537]",1329611,"""""",198979017,"""""",12.3076334,""""""
53.3333021,"[""Buchholz in der Nordheide, Harburg, Niedersachsen, 21244, Deutschland"", ""Buchholz in der Nordheide""]",2624.0,39042,"[53.2432085, 53.3793305, 9.7512602, 9.930916]",111406,"""""",198093060,650.0,9.8666653,7596.1
50.8178682,"[""W\u00fcrselen, St\u00e4dteregion Aachen, Regierungsbezirk K\u00f6ln, Nordrhein-Westfalen, 52146, Deutschland"", ""W\u00fcrselen""]","""""",38934,"[50.8029221, 50.8556717, 6.0867835, 6.2099676]",157994,"""""",197615887,"""""",6.1341108,""""""
50.143872,"[""Maintal, Main-Kinzig-Kreis, Regierungsbezirk Darmstadt, Hessen, 63477, Deutschland"", ""Maintal""]","""""",38930,"[50.1249607, 50.1851043, 8.7800008, 8.8824771]",535888,"""""",198331698,"""""",8.8371444,""""""
51.2527778,"[""Mettmann, Kreis Mettmann, Regierungsbezirk D\u00fcsseldorf, Nordrhein-Westfalen, 40822, Deutschland"", ""Mettmann""]","""""",38789,"[51.2172562, 51.2949225, 6.9268418, 7.0409453]",66521,"""""",197698653,"""""",6.9777778,""""""
50.9616923,"[""Pirna, S\u00e4chsische Schweiz-Osterzgebirge, Sachsen, 01796, Deutschland"", ""Pirna""]","""""",38276,"[50.9027979, 51.0178094, 13.8820586, 14.0147439]",534516,"""""",198331327,"""""",13.9386643,""""""
52.6787254,"[""Bernau bei Berlin, Barnim, Brandenburg, 16321, Deutschland"", ""Bernau bei Berlin""]",2613.8,38194,"[52.6387254, 52.7187254, 13.5481114, 13.6281114]",3011735277,"""""",40243876,884.7,13.5881114,4500.0
50.8137102,"[""Niederkassel, Rhein-Sieg-Kreis, Regierungsbezirk K\u00f6ln, Nordrhein-Westfalen, 53859, Deutschland"", ""Niederkassel""]","""""",38057,"[50.7672297, 50.8500948, 6.9789888, 7.1008634]",104040,"""""",197533095,"""""",7.0351942,""""""
51.7430516,"[""Haltern am See, Kreis Recklinghausen, Regierungsbezirk M\u00fcnster, Nordrhein-Westfalen, 45721, Deutschland"", ""Haltern am See""]","""""",37977,"[51.6954164, 51.8213724, 7.0472897, 7.3213176]",61945,"""""",198027848,"""""",7.187221,""""""
49.9927036,"[""Langen, Offenbach, Regierungsbezirk Darmstadt, Hessen, 63225, Deutschland"", ""Langen (Hessen)""]","""""",37527,"[49.9527036, 50.0327036, 8.6271682, 8.7071682]",240103103,"""""",589177,"""""",8.6671682,""""""
50.0552494,"[""Neu-Isenburg, Landkreis Offenbach, Regierungsbezirk Darmstadt, Hessen, 63263, Deutschland"", ""Neu-Isenburg""]","""""",37512,"[50.0147043, 50.0641396, 8.590754, 8.761557]",659742,"""""",198023693,"""""",8.695738,""""""
52.0929254,"[""Greven, Kreis Steinfurt, Regierungsbezirk M\u00fcnster, Nordrhein-Westfalen, 48268, Deutschland"", ""Greven""]","""""",37502,"[52.0325628, 52.1520083, 7.5233743, 7.7555895]",155710,"""""",197874625,"""""",7.6120326,""""""
51.5017981,"[""Kamp-Lintfort, Kreis Wesel, Regierungsbezirk D\u00fcsseldorf, Nordrhein-Westfalen, 47475, Deutschland"", ""Kamp-Lintfort""]","""""",37346,"[51.4720758, 51.5681317, 6.4484129, 6.5902025]",58619,"""""",198016729,"""""",6.547923,""""""
51.9532449,"[""Warendorf, Kreis Warendorf, Regierungsbezirk M\u00fcnster, Nordrhein-Westfalen, 48231, Deutschland"", ""Warendorf""]","""""",37242,"[51.8517845, 52.0518722, 7.8570445, 8.1022066]",152291,"""""",198725946,"""""",7.9912335,""""""
48.1813797,"[""F\u00fcrstenfeldbruck, Landkreis F\u00fcrstenfeldbruck, Obb, Bayern, 82256, Deutschland"", ""F\u00fcrstenfeldbruck""]","""""",37202,"[48.1460919, 48.2035763, 11.1722731, 11.2851981]",933490,"""""",198016884,"""""",11.2382125,""""""
53.0822606,"[""Papenburg, Landkreis Emsland, Niedersachsen, 26871, Deutschland"", ""Papenburg""]",1396.0,37030,"[53.0060005, 53.1127081, 7.2910168, 7.5246585]",1080035,"""""",198183447,590.9,7.3928398,3651.2
48.9466799,"[""Backnang, Vereinbarte Verwaltungsgemeinschaft der Stadt Backnang, Rems-Murr-Kreis, Regierungsbezirk Stuttgart, Baden-W\u00fcrttemberg, 71522, Deutschland"", ""Backnang""]","""""",36893,"[48.901489, 48.9934394, 9.3720761, 9.5091826]",165637,"""""",198775978,"""""",9.4311225,""""""
52.2994511,"[""K\u00f6nigs Wusterhausen, Dahme-Spreewald, Brandenburg, Deutschland"", ""K\u00f6nigs Wusterhausen""]","""""",36706,"[52.2536551, 52.3893919, 13.5683735, 13.7570863]",55777,"""""",198014335,"""""",13.6244389,""""""
51.7555148,"[""Beckum, Kreis Warendorf, Regierungsbezirk M\u00fcnster, Nordrhein-Westfalen, 59269, Deutschland"", ""Beckum""]","""""",36689,"[51.7016877, 51.8191029, 7.9528917, 8.1375625]",152281,"""""",198770807,"""""",8.041135,""""""
48.3064441,"[""Erding, Landkreis Erding, Obb, Bayern, 85435, Deutschland"", ""Erding""]","""""",36382,"[48.2961042, 48.3425688, 11.8875223, 11.9421162]",3884045,"""""",198957632,"""""",11.9076579,""""""
51.9458943,"[""Coesfeld, Kreis Coesfeld, Regierungsbezirk M\u00fcnster, Nordrhein-Westfalen, 48653, Deutschland"", ""Coesfeld""]","""""",36302,"[51.8462349, 51.9879097, 7.0557333, 7.2611726]",157769,"""""",198773576,"""""",7.1691108,""""""
51.5996307,"[""Voerde (Niederrhein), Kreis Wesel, Regierungsbezirk D\u00fcsseldorf, Nordrhein-Westfalen, 46562, Deutschland"", ""Voerde (Niederrhein)""]","""""",36268,"[51.563028, 51.6367526, 6.5869894, 6.7219563]",58640,"""""",198023116,"""""",6.65540674557897,""""""
52.174687,"[""Emsdetten, Kreis Steinfurt, Regierungsbezirk M\u00fcnster, Nordrhein-Westfalen, 48282, Deutschland"", ""Emsdetten""]","""""",36151,"[52.1289372, 52.2304122, 7.4324319, 7.6347345]",155714,"""""",197651598,"""""",7.5301756,""""""
50.824555,"[""Wesseling, Rhein-Erft-Kreis, Regierungsbezirk K\u00f6ln, Nordrhein-Westfalen, 50389, Deutschland"", ""Wesseling""]","""""",35955,"[50.8048556, 50.8441237, 6.9555421, 7.0128517]",3314803,"""""",198754454,"""""",6.98355241578077,""""""
49.2788369,"[""Sankt Ingbert, Saarpfalz-Kreis, Saarland, 66386, Deutschland"", ""St. Ingbert""]",1368.7,35951,"[49.2367683, 49.3098952, 7.0620746, 7.1935699]",1184823,"""""",198936425,618.8,7.1158276,4106.1
48.5722043,"[""Kehl, Ortenaukreis, Regierungsbezirk Freiburg, Baden-W\u00fcrttemberg, 77694, Deutschland"", ""Kehl""]","""""",35695,"[48.4862511, 48.641053, 7.7919616, 7.9560915]",452979,"""""",198313068,"""""",7.8135502,""""""
52.2431146,"[""Porta Westfalica, Weserradweg, Hausberge, Porta Westfalica, Kreis Minden-L\u00fcbbecke, Regierungsbezirk Detmold, Nordrhein-Westfalen, 32457, Deutschland"", ""Porta Westfalica""]",1277.5,35660,"[52.2430646, 52.2431646, 8.9199753, 8.9200753]",3450601124,"""""",46256264,500.0,8.9200253,3163.3
47.9844315,"[""Tuttlingen, Verwaltungsgemeinschaft Tuttlingen, Landkreis Tuttlingen, Regierungsbezirk Freiburg, Baden-W\u00fcrttemberg, 78532, Deutschland"", ""Tuttlingen""]","""""",35456,"[47.9262364, 48.0322457, 8.6920779, 8.9087753]",1231962,"""""",198082629,"""""",8.8186606,""""""
49.2553,"[""Sinsheim, Verwaltungsgemeinschaft Sinsheim, Rhein-Neckar-Kreis, Regierungsbezirk Karlsruhe, Baden-W\u00fcrttemberg, 74889, Deutschland"", ""Sinsheim""]","""""",35439,"[49.1743099, 49.2946837, 8.7638466, 9.0104596]",453372,"""""",198328688,"""""",8.87722,""""""
52.6947452,"[""Meppen, Landkreis Emsland, Niedersachsen, 49716, Deutschland"", ""Meppen""]",1372.5,35267,"[52.622534, 52.774288, 7.1351416, 7.4432698]",1075125,"""""",198359743,592.8,7.2909824,2888.0
50.6086518,"[""Suhl, Th\u00fcringen, 98527, Deutschland, Europe"", ""Suhl "", ""Suhl""]",1412.7,35166,"[50.5686518, 50.6486518, 10.6526437, 10.7326437]",21453859,"""""",116273,502.5,10.6926437,4076.7
51.9914084,"[""Lage, Kreis Lippe, Regierungsbezirk Detmold, Nordrhein-Westfalen, 32791, Deutschland"", ""Lage""]","""""",35166,"[51.9211187, 52.0315652, 8.7089199, 8.8773515]",142650,"""""",197576710,"""""",8.7919583,""""""
50.3876305,"[""Limburg, Landkreis Limburg-Weilburg, Regierungsbezirk Gie\u00dfen, Hessen, Deutschland"", ""Limburg a.d. Lahn""]","""""",34989,"[50.3536523, 50.4456762, 7.9833431, 8.1570102]",324307,"""""",198410957,"""""",8.0636197,""""""
51.0933769,"[""Kempen, Kreis Heinsberg, Regierungsbezirk K\u00f6ln, Nordrhein-Westfalen, 52525, Deutschland"", ""Kempen""]","""""",34711,"[51.0733769, 51.1133769, 6.0805432, 6.1205432]",130050567,"""""",327473,"""""",6.1005432,""""""
51.1406481,"[""Wermelskirchen, Rheinisch-Bergischer Kreis, Regierungsbezirk K\u00f6ln, Nordrhein-Westfalen, 42929, Deutschland"", ""Wermelskirchen""]","""""",34705,"[51.0645591, 51.161058, 7.1385522, 7.298924]",148789,"""""",198342498,"""""",7.2156901,""""""
53.3636474,"[""Winsen (Luhe), Harburg, Niedersachsen, 21423, Deutschland"", ""Winsen (Luhe)"", ""Winsen ""]",2288.5,34635,"[53.2867397, 53.416136, 10.0911121, 10.3271242]",252882,"""""",198229985,580.0,10.2059206,3994.7
52.8461339,"[""Cloppenburg, Landkreis Cloppenburg, Niedersachsen, 49661, Deutschland"", ""Cloppenburg""]","""""",34581,"[52.7958853, 52.9232308, 7.9642823, 8.1032214]",1109686,"""""",198050470,"""""",8.0438783,""""""
51.6512192,"[""Datteln, Kreis Recklinghausen, Regierungsbezirk M\u00fcnster, Nordrhein-Westfalen, 45711, Deutschland"", ""Datteln""]","""""",34563,"[51.6136262, 51.7206557, 7.2400123, 7.4213201]",63509,"""""",197704619,"""""",7.3393014,""""""
49.3164661,"[""Saarlouis, Landkreis Saarlouis, Saarland, 66740, Deutschland"", ""Saarlouis""]",1700.0,34532,"[49.26028, 49.36206, 6.6751543, 6.815681]",1184570,"""""",198244926,641.9,6.749846,3673.0
49.9923836,"[""M\u00f6rfelden-Walldorf, Kreis Gro\u00df-Gerau, Regierungsbezirk Darmstadt, Hessen, 64546, Deutschland"", ""M\u00f6rfelden-Walldorf""]","""""",34315,"[49.9436488, 50.0267114, 8.5038979, 8.6299947]",444545,"""""",198883753,"""""",8.5622468,""""""
49.248655,"[""Zweibr\u00fccken, Rheinland-Pfalz, 66482, Deutschland"", ""Zweibr\u00fccken "", ""Zweibr\u00fccken""]",1498.3,34270,"[49.208655, 49.288655, 7.3241981, 7.4041981]",25553522,"""""",124858,534.6,7.3641981,4494.9
53.2327625,"[""Leer (Ostfriesland), Niedersachsen, 26789, Deutschland"", ""Leer (Ostfriesland)""]","""""",34226,"[53.1927625, 53.2727625, 7.4177265, 7.4977265]",240097893,"""""",588132,"""""",7.4577265,""""""
51.3564413,"[""Merseburg, Saalekreis, Sachsen-Anhalt, 06217, Deutschland"", ""Merseburg""]","""""",34197,"[51.2903029, 51.3908853, 11.8983456, 12.0394029]",2406260,"""""",198645913,"""""",11.996148,""""""
49.1365626,"[""Crailsheim, Verwaltungsverband Crailsheim, Landkreis Schw\u00e4bisch Hall, Regierungsbezirk Stuttgart, Baden-W\u00fcrttemberg, 74564, Deutschland"", ""Crailsheim""]","""""",34130,"[49.0791167, 49.1860658, 9.9437754, 10.167651]",390790,"""""",198273722,"""""",10.0720195,""""""
48.2737512,"[""Balingen, Gemeindeverwaltungsverband Balingen, Zollernalbkreis, Regierungsbezirk T\u00fcbingen, Baden-W\u00fcrttemberg, 72336, Deutschland"", ""Balingen""]",2247.3,34062,"[48.2136696, 48.3265796, 8.7679069, 8.9472737]",2779376,"""""",198421230,694.4,8.8557862,6741.9
50.0135141,"[""Dietzenbach, Landkreis Offenbach, Regierungsbezirk Darmstadt, Hessen, 63128, Deutschland"", ""Dietzenbach""]","""""",34055,"[49.9824837, 50.0393132, 8.7476525, 8.8266504]",416276,"""""",198307162,"""""",8.7828814,""""""
52.3964639,"[""Seelze, Region Hannover, Niedersachsen, Deutschland"", ""Seelze""]","""""",34036,"[52.3449618, 52.4227037, 9.4870145, 9.6654988]",382498,"""""",197838859,"""""",9.594287,""""""
51.3854116,"[""Hemer, M\u00e4rkischer Kreis, Regierungsbezirk Arnsberg, Nordrhein-Westfalen, 58675, Deutschland"", ""Hemer""]","""""",34016,"[51.3122282, 51.4174814, 7.7202239, 7.8534217]",2063637,"""""",198572121,"""""",7.7661798,""""""
49.5401174,"[""Viernheim, Kreis Bergstra\u00dfe, Regierungsbezirk Darmstadt, Hessen, 68519, Deutschland"", ""Viernheim""]","""""",33989,"[49.5191807, 49.5938416, 8.4950739, 8.6203969]",537051,"""""",198512882,"""""",8.5788029,""""""
52.30223,"[""Barsinghausen, Region Hannover, Niedersachsen, 30890, Deutschland"", ""Barsinghausen""]",1944.7,33989,"[52.260527, 52.4006094, 9.3990321, 9.5683804]",2012699,"""""",199085113,775.7,9.4623741,3300.0
51.0999765,"[""Radebeul, Mei\u00dfen, Sachsen, 01445, Deutschland"", ""Radebeul""]",3095.2,33954,"[51.0885119, 51.1428608, 13.5853138, 13.7011022]",36820,"""""",198078797,568.6,13.6767995,6741.6
52.1294289,"[""Steinfurt, Kreis Steinfurt, Regierungsbezirk M\u00fcnster, Nordrhein-Westfalen, 48565, Deutschland"", ""Steinfurt""]","""""",33915,"[52.0811251, 52.1945632, 7.2609328, 7.4556055]",155787,"""""",198108766,"""""",7.3903454,""""""
51.5169736,"[""Geldern, Kreis Kleve, Regierungsbezirk D\u00fcsseldorf, Nordrhein-Westfalen, 47608, Deutschland"", ""Geldern""]",1775.3,33819,"[51.4671314, 51.5765723, 6.2006167, 6.4205949]",167992,"""""",197666215,640.0,6.3228189,4024.2
48.8611498,"[""Kornwestheim, Landkreis Ludwigsburg, Regierungsbezirk Stuttgart, Baden-W\u00fcrttemberg, 70806, Deutschland"", ""Kornwestheim""]","""""",33766,"[48.8475184, 48.8843269, 9.1523363, 9.224126]",405293,"""""",198026647,"""""",9.1873875,""""""
50.1804837,"[""Bad Vilbel, Wetteraukreis, Regierungsbezirk Darmstadt, Hessen, 61118, Deutschland"", ""Bad Vilbel""]","""""",33745,"[50.162271, 50.2231886, 8.7019996, 8.7928395]",450123,"""""",198312350,"""""",8.7410776,""""""
52.966838,"[""Uelzen, Niedersachsen, 29525, Deutschland"", ""Uelzen"", ""Uelzen ""]",1600.0,33673,"[52.8791557, 53.0413613, 10.4662676, 10.6970508]",1246442,"""""",198417975,510.3,10.558615,4800.0
51.6755765,"[""Goch, Kreis Kleve, Regierungsbezirk D\u00fcsseldorf, Nordrhein-Westfalen, 47574, Deutschland"", ""Goch""]","""""",33618,"[51.6138012, 51.7480287, 6.0260539, 6.2293301]",167969,"""""",198354340,"""""",6.1593045,""""""
48.8333535,"[""Deggendorf, Landkreis Deggendorf, NB, Bayern, 94469, Deutschland"", ""Deggendorf""]",2684.6,33373,"[48.7868595, 48.9086147, 12.873559, 13.0741545]",959809,"""""",198540211,968.8,12.96205,7760.8
53.5810226,"[""Wedel, Pinneberg, Schleswig-Holstein, 22880, Deutschland"", ""Wedel""]",3958.3,33347,"[53.5575882, 53.6187534, 9.6333439, 9.7592222]",3370039,"""""",198755508,605.3,9.7038772,7236.8
53.6736529,"[""Ahrensburg, Stormarn, Schleswig-Holstein, 22926, Deutschland"", ""Ahrensburg""]",3481.5,33305,"[53.6333794, 53.7051402, 10.1699771, 10.3156737]",453746,"""""",198005445,1020.6,10.2358999,6607.3
51.2094255,"[""M\u00fchlhausen/Th\u00fcringen, Unstrut-Hainich-Kreis, Th\u00fcringen, 99974, Deutschland, Europe"", ""M\u00fchlhausen /Th\u00fcringen"", ""M\u00fchlhausen/Th\u00fcringen""]",1959.2,33127,"[51.1694255, 51.2494255, 10.4189044, 10.4989044]",240027949,"""""",571524,500.0,10.4589044,5877.6
51.4333103,"[""Hoyerswerda - Wojerecy, Bautzen, Sachsen, 02977, Deutschland"", ""Hoyerswerda""]","""""",33116,"[51.3823547, 51.4660263, 14.0655603, 14.3704233]",409630,"""""",197873708,"""""",14.250083,""""""
51.1902651,"[""Korschenbroich, Rhein-Kreis Neuss, Regierungsbezirk D\u00fcsseldorf, Nordrhein-Westfalen, 41352, Deutschland"", ""Korschenbroich""]","""""",33063,"[51.1397112, 51.2311943, 6.4800602, 6.6268082]",168487,"""""",198354671,"""""",6.5143539,""""""
51.7930788,"[""Bernburg, Salzlandkreis, Sachsen-Anhalt, 06406, Deutschland"", ""Bernburg "", ""Bernburg (Saale)""]",1843.4,32876,"[51.7173193, 51.8477697, 11.647061, 11.9044149]",124297,"""""",197775445,522.2,11.7391606,2807.5
47.5605924,"[""Rheinfelden (Baden), Verwaltungsgemeinschaft Rheinfelden (Baden), Landkreis L\u00f6rrach, Regierungsbezirk Freiburg, Baden-W\u00fcrttemberg, 79618, Deutschland"", ""Rheinfelden (Baden)""]","""""",32856,"[47.5422251, 47.6253256, 7.7067254, 7.8410472]",2787853,"""""",198535137,"""""",7.7861959,""""""
51.8344172,"[""Wernigerode, Landkreis Harz, Sachsen-Anhalt, Deutschland, Europe"", ""Wernigerode""]","""""",32837,"[51.7521811, 51.8871749, 10.5738521, 10.9002582]",1352965,"""""",198244667,"""""",10.7862526,""""""
48.0984413,"[""Biberach an der Ri\u00df, Verwaltungsgemeinschaft Biberach an der Ri\u00df, Landkreis Biberach, Regierungsbezirk T\u00fcbingen, Baden-W\u00fcrttemberg, 88400, Deutschland"", ""Biberach an der Ri\u00df""]","""""",32801,"[48.0472189, 48.1302278, 9.671518, 9.9062784]",2801346,"""""",198609137,"""""",9.7899938,""""""
51.1367325,"[""Naumburg (Saale), Burgenlandkreis, Sachsen-Anhalt, Deutschland"", ""Naumburg (Saale)""]","""""",32755,"[51.0727766, 51.2016644, 11.6476118, 11.8732095]",2403974,"""""",198386422,"""""",11.7518486428345,""""""
49.5944428,"[""Lampertheim, Kreis Bergstra\u00dfe, Regierungsbezirk Darmstadt, Hessen, 68623, Deutschland"", ""Lampertheim""]","""""",32609,"[49.5729433, 49.6787661, 8.3646389, 8.5941621]",537050,"""""",198332038,"""""",8.4675044,""""""
50.9220931,"[""J\u00fclich, Kreis D\u00fcren, Regierungsbezirk K\u00f6ln, Nordrhein-Westfalen, 52428, Deutschland"", ""J\u00fclich""]","""""",32505,"[50.8784956, 50.9785395, 6.2644865, 6.4548901]",158408,"""""",197643189,"""""",6.3611015,""""""
50.9852411,"[""Altenburg, Altenburger Land, Th\u00fcringen, Deutschland"", ""Altenburg""]","""""",32374,"[50.9221977, 51.0346991, 12.3721597, 12.4956935]",1263721,"""""",198596327,"""""",12.4340988,""""""
52.7310691,"[""Vechta, Landkreis Vechta, Niedersachsen, 49377, Deutschland"", ""Vechta""]","""""",32201,"[52.6868118, 52.8005782, 8.1946843, 8.3839665]",1336408,"""""",198436906,"""""",8.2873162,""""""
49.7187128,"[""Forchheim, Landkreis Forchheim, Oberfranken, Bayern, 91301, Deutschland"", ""Forchheim "", ""Forchheim""]",3076.2,32125,"[49.6738471, 49.7508956, 10.9995766, 11.1266282]",1080467,"""""",198917446,1330.3,11.059642,5625.0
50.3681107,"[""Bad Nauheim, Wetteraukreis, Regierungsbezirk Darmstadt, Hessen, 61231, Deutschland"", ""Bad Nauheim""]","""""",32102,"[50.3420463, 50.4117868, 8.7096011, 8.7962687]",167408,"""""",198128382,"""""",8.7473608,""""""
52.3580209,"[""F\u00fcrstenwalde/Spree, Oder-Spree, Brandenburg, Deutschland"", ""F\u00fcrstenwalde/Spree""]","""""",32098,"[52.322678, 52.4268707, 13.9378317, 14.1495065]",1384842,"""""",198115601,"""""",14.064985,""""""
51.7649178,"[""Delbr\u00fcck, Kreis Paderborn, Regierungsbezirk Detmold, Nordrhein-Westfalen, 33129, Deutschland"", ""Delbr\u00fcck""]","""""",31943,"[51.7041967, 51.8437031, 8.402814, 8.681012]",148073,"""""",198102167,"""""",8.5594953,""""""
53.9250316,"[""Itzehoe, Steinburg, Schleswig-Holstein, 25524, Deutschland"", ""Itzehoe""]",1596.2,31848,"[53.9014083, 53.9633653, 9.4697065, 9.5789244]",152790,"""""",198132605,509.1,9.5155854,3764.5
53.0068811,"[""Achim, Landkreis Verden, Niedersachsen, 28832, Deutschland"", ""Achim""]","""""",31834,"[52.9800064, 53.0566266, 8.9158254, 9.1445973]",1182036,"""""",198244433,"""""",9.0425504,""""""
52.2,"[""GMH\u00fctte, Landkreis Osnabr\u00fcck, Niedersachsen, 49124, Deutschland"", ""Georgsmarienh\u00fctte""]","""""",31624,"[52.1676938, 52.2402312, 7.9895518, 8.1518117]",1819454,"""""",198557819,"""""",8.05,""""""
52.6410849,"[""Nienburg, Landkreis Nienburg/Weser, Niedersachsen, 31582, Deutschland"", ""Nienburg (Weser)""]","""""",31602,"[52.5896403, 52.6887018, 9.1629294, 9.3095001]",1183257,"""""",198208742,"""""",9.2181918,""""""
48.595557,"[""Herrenberg, Vereinbarte Verwaltungsgemeinschaft der Stadt Herrenberg, Landkreis B\u00f6blingen, Regierungsbezirk Stuttgart, Baden-W\u00fcrttemberg, 71083, Deutschland"", ""Herrenberg""]","""""",31499,"[48.5602164, 48.6392506, 8.7898756, 8.9819058]",722073,"""""",198327038,"""""",8.8674715,""""""
51.6398512,"[""Oer-Erkenschwick, Kreis Recklinghausen, Regierungsbezirk M\u00fcnster, Nordrhein-Westfalen, 45739, Deutschland"", ""Oer-Erkenschwick""]","""""",31378,"[51.6241263, 51.7039088, 7.1902964, 7.2973639]",63502,"""""",197464514,"""""",7.2605914,""""""
51.5458979,"[""Rheinberg, Kreis Wesel, Regierungsbezirk D\u00fcsseldorf, Nordrhein-Westfalen, 47495, Deutschland"", ""Rheinberg""]","""""",31195,"[51.5035306, 51.6246904, 6.5335115, 6.699589]",58643,"""""",198283811,"""""",6.6014097,""""""
47.7364106,"[""Hegau-Bodensee-Klinikum Radolfzell, 12, Hausherrenstra\u00dfe, Mettnau, Hirschbrunnhof, Radolfzell, Landkreis Konstanz, Regierungsbezirk Freiburg, Baden-W\u00fcrttemberg, 78315, Deutschland"", ""Radolfzell am Bodensee""]","""""",31064,"[47.7363606, 47.7364606, 8.9783653, 8.9784653]",265214605,"""""",759131,"""""",8.9784153,""""""
52.02417035,"[""Sch\u00f6nebeck (Elbe), Salzlandkreis, Sachsen-Anhalt, Deutschland"", ""Sch\u00f6nebeck (Elbe)""]","""""",31038,"[51.9749351, 52.0933136, 11.659643, 11.8618316]",65420,"""""",197465955,"""""",11.770594646724,""""""
50.9598627,"[""Kreuztal, Kreis Siegen-Wittgenstein, Regierungsbezirk Arnsberg, Nordrhein-Westfalen, 57223, Deutschland"", ""Kreuztal""]","""""",31017,"[50.9242212, 51.0424884, 7.9198791, 8.0710864]",163254,"""""",198183259,"""""",7.9896202,""""""
52.4076948,"[""Bramsche, Landkreis Osnabr\u00fcck, Niedersachsen, 49565, Deutschland"", ""Bramsche""]","""""",30992,"[52.3591395, 52.481047, 7.8421762, 8.1587888]",1818486,"""""",198223303,"""""",7.979647,""""""
51.8185067,"[""Einbeck, Landkreis Northeim, Niedersachsen, Deutschland, Europe"", ""Einbeck""]","""""",30925,"[51.7308974, 51.9138654, 9.7585728, 10.0413467]",156752,"""""",198135638,"""""",9.8678465,""""""
51.3207417,"[""Gevelsberg, Ennepe-Ruhr-Kreis, Regierungsbezirk Arnsberg, Nordrhein-Westfalen, 58285, Deutschland"", ""Gevelsberg""]","""""",30910,"[51.3039971, 51.3664949, 7.2978206, 7.3952971]",1956782,"""""",198415424,"""""",7.3404792,""""""
52.9243859,"[""Neuruppin, Ostprignitz-Ruppin, Brandenburg, Deutschland"", ""Neuruppin""]","""""",30889,"[52.7919212, 53.0996851, 12.6592389, 12.9863611]",1302386,"""""",198430141,"""""",12.8092919,""""""
53.6291019,"[""Geestland, Landkreis Cuxhaven, Niedersachsen, Deutschland"", ""Geestland""]","""""",30873,"[53.5196261, 53.7372646, 8.509083, 8.9956248]",4447298,"""""",198817745,"""""",8.77189954603205,""""""
51.8322137,"[""Emmerich, Kreis Kleve, Regierungsbezirk D\u00fcsseldorf, Nordrhein-Westfalen, 46446, Deutschland"", ""Emmerich am Rhein""]","""""",30845,"[51.8054515, 51.9052449, 6.103448, 6.3893873]",167945,"""""",198108056,"""""",6.2428283,""""""
51.5533457,"[""Werl, Kreis Soest, Regierungsbezirk Arnsberg, Nordrhein-Westfalen, 59457, Deutschland"", ""Werl""]","""""",30782,"[51.5087631, 51.595809, 7.8270933, 7.9985595]",153508,"""""",197632133,"""""",7.9155558,""""""
51.1954956,"[""Haan, Kreis Mettmann, Regierungsbezirk D\u00fcsseldorf, Nordrhein-Westfalen, 42781, Deutschland"", ""Haan""]","""""",30483,"[51.1719597, 51.2441147, 6.9598031, 7.0517532]",66527,"""""",198682599,"""""",7.0085328,""""""
52.4438008,"[""Burgdorf, Region Hannover, Niedersachsen, 31303, Deutschland"", ""Burgdorf""]","""""",30482,"[52.4079312, 52.54047, 9.9197157, 10.1026286]",59419,"""""",198726890,"""""",10.0078364,""""""
50.8402243,"[""Lohmar, Rhein-Sieg-Kreis, Regierungsbezirk K\u00f6ln, Nordrhein-Westfalen, 53797, Deutschland"", ""Lohmar "", ""Lohmar""]",2418.9,30451,"[50.8118291, 50.9285324, 7.1908103, 7.3065632]",173123,"""""",198733576,792.0,7.2127276,5714.3
53.4397121,"[""Geesthacht, Herzogtum Lauenburg, Schleswig-Holstein, 21502, Deutschland"", ""Geesthacht""]","""""",30407,"[53.3982436, 53.4607814, 10.3078205, 10.4695447]",325771,"""""",197995324,"""""",10.3682538,""""""
51.3038241,"[""Riesa, Mei\u00dfen, Sachsen, Deutschland"", ""Riesa""]","""""",30392,"[51.2595889, 51.3386611, 13.2031217, 13.3880697]",549800,"""""",198013949,"""""",13.308828,""""""
53.2281763,"[""Osterholz-Scharmbeck, Landkreis Osterholz, Niedersachsen, 27711, Deutschland"", ""Osterholz-Scharmbeck""]",1613.3,30329,"[53.1831181, 53.3268615, 8.6598246, 8.9503817]",188238,"""""",198163483,500.0,8.7948239,3694.4
47.6048182,"[""Weil am Rhein, Landkreis L\u00f6rrach, Regierungsbezirk Freiburg, Baden-W\u00fcrttemberg, 79576, Deutschland"", ""Weil am Rhein""]","""""",30197,"[47.5768697, 47.6343513, 7.5669554, 7.6496357]",2787969,"""""",198690822,"""""",7.6094052,""""""
51.3436532,"[""Meschede, Hochsauerlandkreis, Regierungsbezirk Arnsberg, Nordrhein-Westfalen, 59872, Deutschland"", ""Meschede""]","""""",30086,"[51.2506747, 51.4107402, 8.0965476, 8.3741186]",157423,"""""",197814508,"""""",8.2859257,""""""
53.0586366,"[""Schwedt/Oder, Uckermark, Brandenburg, Deutschland"", ""Schwedt/Oder""]","""""",30075,"[52.9862379, 53.1754243, 14.1305375, 14.3816563]",1334108,"""""",198143838,"""""",14.2840858,""""""
51.2967192,"[""Ennepetal, Ennepe-Ruhr-Kreis, Regierungsbezirk Arnsberg, Nordrhein-Westfalen, 58256, Deutschland"", ""Ennepetal""]","""""",29929,"[51.2388271, 51.3323022, 7.2964768, 7.4327458]",1813352,"""""",198385828,"""""",7.3693335,""""""
50.4391924,"[""Andernach, Landkreis Mayen-Koblenz, Rheinland-Pfalz, 56626, Deutschland"", ""Andernach""]","""""",29860,"[50.386007, 50.4766043, 7.2869285, 7.4506367]",541666,"""""",198011079,"""""",7.4023145,""""""
49.4427023,"[""Merzig, Landkreis Merzig-Wadern, Saarland, 66663, Deutschland"", ""Merzig""]",1500.9,29818,"[49.3974379, 49.5048155, 6.5042326, 6.7252024]",1187154,"""""",198404935,500.0,6.6374902,4502.7
48.3549199,"[""Friedberg (Bayern), Landkreis Aichach-Friedberg, Schwaben, Bayern, 86316, Deutschland"", ""Friedberg""]","""""",29782,"[48.2977753, 48.4310061, 10.9337844, 11.0802818]",395731,"""""",198019872,"""""",10.9838928,""""""
50.8681341,"[""Bad Hersfeld, Landkreis Hersfeld-Rotenburg, Regierungsbezirk Kassel, Hessen, 36251, Deutschland, Europe"", ""Bad Hersfeld""]","""""",29767,"[50.8134112, 50.9091501, 9.6108757, 9.8291736]",275075,"""""",198804130,"""""",9.7068481,""""""
50.1424579,"[""Taunusstein, Rheingau-Taunus-Kreis, Regierungsbezirk Darmstadt, Hessen, 65232, Deutschland"", ""Taunusstein""]","""""",29746,"[50.0936766, 50.2213859, 8.0980898, 8.2431337]",412432,"""""",197930098,"""""",8.157658,""""""
51.66268,"[""Werne, Kreis Unna, Regierungsbezirk Arnsberg, Nordrhein-Westfalen, 59368, Deutschland"", ""Werne""]","""""",29721,"[51.6271266, 51.728775, 7.540556, 7.7286528]",158456,"""""",197616528,"""""",7.6355052,""""""
48.8030425,"[""Gaggenau, Landkreis Rastatt, Regierungsbezirk Karlsruhe, Baden-W\u00fcrttemberg, 76571, Deutschland"", ""Gaggenau""]","""""",29615,"[48.7693393, 48.8626318, 8.2849864, 8.4173633]",907232,"""""",198007333,"""""",8.320204,""""""
48.7371951,"[""Neuburg a.d.Donau, Landkreis Neuburg-Schrobenhausen, Obb, Bayern, Deutschland"", ""Neuburg a.d.Donau""]","""""",29608,"[48.6882469, 48.8030757, 11.1045706, 11.3045372]",943684,"""""",198377238,"""""",11.1795268,""""""
51.8074106,"[""Rietberg, Kreis G\u00fctersloh, Regierungsbezirk Detmold, Nordrhein-Westfalen, 33397, Deutschland"", ""Rietberg""]","""""",29432,"[51.7174252, 51.8762047, 8.3331904, 8.5338081]",78758,"""""",198046138,"""""",8.4286614,""""""
53.7936523,"[""G\u00fcstrow, Rostock, Mecklenburg-Vorpommern, 18273, Deutschland"", ""G\u00fcstrow""]","""""",29429,"[53.750922, 53.837105, 12.119024, 12.294451]",1971863,"""""",198374172,"""""",12.1759661,""""""
49.0364564,"[""Bretten, Verwaltungsgemeinschaft Bretten, Landkreis Karlsruhe, Regierungsbezirk Karlsruhe, Baden-W\u00fcrttemberg, 75015, Deutschland"", ""Bretten""]","""""",29336,"[48.9885269, 49.0983467, 8.6350129, 8.7632662]",158352,"""""",197643007,"""""",8.7072589,""""""
48.9329116,"[""Vaihingen an der Enz, Landkreis Ludwigsburg, Regierungsbezirk Stuttgart, Baden-W\u00fcrttemberg, 71665, Deutschland"", ""Vaihingen an der Enz""]","""""",29308,"[48.8826443, 49.02149, 8.8999088, 9.0383741]",405820,"""""",198102581,"""""",8.9594655,""""""
51.3167,"[""T\u00f6nisvorst, Kreis Viersen, Regierungsbezirk D\u00fcsseldorf, Nordrhein-Westfalen, 47918, Deutschland"", ""T\u00f6nisvorst""]","""""",29286,"[51.2775364, 51.3492985, 6.3871285, 6.5156879]",88735,"""""",198742294,"""""",6.45,""""""
51.6237456,"[""Waltrop, Kreis Recklinghausen, Regierungsbezirk M\u00fcnster, Nordrhein-Westfalen, 45731, Deutschland"", ""Waltrop""]","""""",29252,"[51.5869781, 51.662764, 7.3190736, 7.4652912]",63510,"""""",197449933,"""""",7.400959,""""""
51.8260823,"[""Oelde, Kreis Warendorf, Regierungsbezirk M\u00fcnster, Nordrhein-Westfalen, 59302, Deutschland"", ""Oelde""]","""""",29209,"[51.7581019, 51.8997389, 8.0817955, 8.2598919]",151333,"""""",197808885,"""""",8.1453352,""""""
51.7747369,"[""H\u00f6xter, Kreis H\u00f6xter, Regierungsbezirk Detmold, Nordrhein-Westfalen, 37671, Deutschland, Europe"", ""H\u00f6xter""]","""""",29112,"[51.6718908, 51.8648797, 9.2490875, 9.4617417]",148593,"""""",198342136,"""""",9.3816877,""""""
51.705401,"[""Northeim, Landkreis Northeim, Niedersachsen, 37154, Deutschland, Europe"", ""Northeim""]","""""",29040,"[51.6418355, 51.7897952, 9.8894506, 10.1190576]",1397834,"""""",198119388,"""""",9.9972782,""""""
48.6945066,"[""B\u00fchl, Vereinbarte Verwaltungsgemeinschaft B\u00fchl, Landkreis Rastatt, Regierungsbezirk Karlsruhe, Baden-W\u00fcrttemberg, 77815, Deutschland"", ""B\u00fchl""]","""""",29000,"[48.6273573, 48.7582943, 8.0329686, 8.2575535]",1188919,"""""",198582147,"""""",8.134423,""""""
50.3352682,"[""Friedberg (Hessen), Wetteraukreis, Regierungsbezirk Darmstadt, Hessen, 61169, Deutschland"", ""Friedberg (Hessen)""]","""""",28962,"[50.2897875, 50.3645207, 8.636693, 8.8211508]",393689,"""""",198258851,"""""",8.7539306,""""""
52.208794,"[""Springe, Region Hannover, Niedersachsen, 31832, Deutschland"", ""Springe"", ""Springe ""]",1481.5,28918,"[52.1280558, 52.2652028, 9.4640257, 9.7519884]",396873,"""""",198226136,520.6,9.5533403,3555.6
48.0514973,"[""Landsberg am Lech, Landkreis Landsberg am Lech, Obb, Bayern, 86899, Deutschland"", ""Landsberg"", ""Landsberg am Lech""]","""""",15032,"[47.9878848, 48.0794911, 10.807257, 10.9238811]",932270,"""""",198350272,"""""",10.8737728,""""""
50.1374646,"[""Kelkheim, Main-Taunus-Kreis, Regierungsbezirk Darmstadt, Hessen, 65779, Deutschland"", ""Kelkheim (Taunus)""]","""""",28829,"[50.1011295, 50.1879338, 8.3761191, 8.4865824]",414796,"""""",197880297,"""""",8.452008,""""""
48.2730686,"[""Unterschlei\u00dfheim, Landkreis M\u00fcnchen, Obb, Bayern, 85716, Deutschland"", ""Unterschlei\u00dfheim""]","""""",28809,"[48.2551324, 48.2991862, 11.5138273, 11.5967226]",334267,"""""",198817736,"""""",11.5702716,""""""
54.3046701,"[""Rendsburg, Rendsburg-Eckernf\u00f6rde, Schleswig-Holstein, 24768, Deutschland"", ""Rendsburg""]","""""",28789,"[54.2549934, 54.3387644, 9.6081554, 9.712058]",548570,"""""",198337623,"""""",9.6645115,""""""
49.3261854,"[""Schwandorf, Landkreis Schwandorf, OPf, Bayern, 92421, Deutschland"", ""Schwandorf""]","""""",28730,"[49.2479558, 49.3826214, 11.9897338, 12.2108622]",962181,"""""",198909871,"""""",12.1092708,""""""
50.8963758,"[""R\u00f6srath, Rheinisch-Bergischer Kreis, Regierungsbezirk K\u00f6ln, Nordrhein-Westfalen, 51503, Deutschland"", ""R\u00f6srath""]","""""",28666,"[50.8669327, 50.9430972, 7.133527, 7.2472519]",173102,"""""",197674972,"""""",7.1825445,""""""
51.2794879,"[""Schwelm, Ennepe-Ruhr-Kreis, Regierungsbezirk Arnsberg, Nordrhein-Westfalen, 58332, Deutschland"", ""Schwelm""]","""""",28478,"[51.2495778, 51.3167965, 7.2557258, 7.3202988]",162833,"""""",198730561,"""""",7.2890314,""""""
51.0491637,"[""Zeitz, Burgenlandkreis, Sachsen-Anhalt, Deutschland"", ""Zeitz""]","""""",28381,"[50.971208, 51.1301383, 12.0457826, 12.2778931]",2404586,"""""",198539637,"""""",12.1349991,""""""
49.7106197,"[""Idar-Oberstein, Landkreis Birkenfeld, Rheinland-Pfalz, 55743, Deutschland"", ""Idar-Oberstein""]",792.6,28357,"[49.6492332, 49.7543794, 7.2532209, 7.4457666]",444934,"""""",198344579,500.0,7.313321,2377.8
48.8754571,"[""Winnenden, Gemeindeverwaltungsverband Winnenden, Rems-Murr-Kreis, Regierungsbezirk Stuttgart, Baden-W\u00fcrttemberg, 71364, Deutschland"", ""Winnenden""]","""""",28351,"[48.8433607, 48.9025469, 9.362098, 9.4627203]",401699,"""""",198455311,"""""",9.3978478,""""""
50.1219279,"[""M\u00fchlheim am Main, Landkreis Offenbach, Regierungsbezirk Darmstadt, Hessen, 63165, Deutschland"", ""M\u00fchlheim am Main""]","""""",28318,"[50.071421, 50.133323, 8.8074319, 8.8868565]",659749,"""""",198836615,"""""",8.8293068,""""""
51.0994249,"[""Leichlingen (Rheinland), Am Wallgraben, B\u00fcscherh\u00f6fen, Leichlingen, Rheinisch-Bergischer Kreis, Regierungsbezirk K\u00f6ln, Nordrhein-Westfalen, 42799, Deutschland"", ""Leichlingen (Rheinland)""]","""""",28166,"[51.0873661, 51.1112974, 6.9883721, 7.0308411]",10275537,"""""",72768601,"""""",7.0129371775131,""""""
